{"type":"FeatureCollection", "features":[
{"type":"Feature","geometry":{"type":"Point","coordinates":[9.79149084279002,44.7208518911509,0]},"properties":{"CODICEIMS":"NG2BOR1100002","DENOMSIMS":"Bore alto","CODACQUED":"NG2BOR1100","ZIMPIANT":912,"ANNOREAL":-999,"TIPFUNZION":"CO","NUMPOMPE":2,"PORTNOGRUP":-999,"POTCONTR":11,"PREPORTNOM":-999,"GRUPELETTR":"N","STRUMMISUR":"N","TELECONTR":"S","STATOSERV":"S"}},
{"type":"Feature","geometry":{"type":"Point","coordinates":[10.1556280710651,44.6361084638838,0]},"properties":{"CODICEIMS":"NG2FOR0704002","DENOMSIMS":"La Cognana (Montebosso)","CODACQUED":"NG2FOR0704","ZIMPIANT":591,"ANNOREAL":-999,"TIPFUNZION":"CO","NUMPOMPE":2,"PORTNOGRUP":0.01,"POTCONTR":30,"PREPORTNOM":70,"GRUPELETTR":"N","STRUMMISUR":"N","TELECONTR":"S","STATOSERV":"S"}},
{"type":"Feature","geometry":{"type":"Point","coordinates":[9.92228371950912,44.7491025857032,0]},"properties":{"CODICEIMS":"NG2PEL0407001","DENOMSIMS":"Varone","CODACQUED":"NG2PEL0407","ZIMPIANT":565,"ANNOREAL":1960,"TIPFUNZION":"CO","NUMPOMPE":2,"PORTNOGRUP":0.0025,"POTCONTR":28,"PREPORTNOM":100,"GRUPELETTR":"N","STRUMMISUR":"N","TELECONTR":"S","STATOSERV":"S"}},
{"type":"Feature","geometry":{"type":"Point","coordinates":[10.0921494400777,44.6606155653903,0]},"properties":{"CODICEIMS":"NG2FOR0705001","DENOMSIMS":"Costa di Piantonia","CODACQUED":"NG2FOR0705","ZIMPIANT":328,"ANNOREAL":1993,"TIPFUNZION":"CO","NUMPOMPE":1,"PORTNOGRUP":0.004,"POTCONTR":6.6,"PREPORTNOM":100,"GRUPELETTR":"N","STRUMMISUR":"N","TELECONTR":"N","STATOSERV":"S"}},
{"type":"Feature","geometry":{"type":"Point","coordinates":[9.75553211600647,44.5209392489622,0]},"properties":{"CODICEIMS":"NG2BVT0133001","DENOMSIMS":"Impianto di sollevamento della Meda","CODACQUED":"NG2BVT0133","ZIMPIANT":642,"ANNOREAL":1984,"TIPFUNZION":"CO","NUMPOMPE":1,"PORTNOGRUP":1,"POTCONTR":22,"PREPORTNOM":100,"GRUPELETTR":"N","STRUMMISUR":"N","TELECONTR":"N","STATOSERV":"S"}},
{"type":"Feature","geometry":{"type":"Point","coordinates":[9.754587770326,44.5274085964267,0]},"properties":{"CODICEIMS":"NG2BVT0133002","DENOMSIMS":"Impianto di sollevamento Casembola","CODACQUED":"NG2BVT0133","ZIMPIANT":784,"ANNOREAL":1986,"TIPFUNZION":"CO","NUMPOMPE":1,"PORTNOGRUP":1,"POTCONTR":3.3,"PREPORTNOM":100,"GRUPELETTR":"N","STRUMMISUR":"N","TELECONTR":"N","STATOSERV":"S"}},
{"type":"Feature","geometry":{"type":"Point","coordinates":[9.76700985633171,44.4985479828538,0]},"properties":{"CODICEIMS":"NG2BVT0100001","DENOMSIMS":"Pompaggio della Costazza","CODACQUED":"NG2BVT0100","ZIMPIANT":450,"ANNOREAL":1984,"TIPFUNZION":"CO","NUMPOMPE":2,"PORTNOGRUP":0.005,"POTCONTR":16.5,"PREPORTNOM":100,"GRUPELETTR":"N","STRUMMISUR":"N","TELECONTR":"N","STATOSERV":"S"}},
{"type":"Feature","geometry":{"type":"Point","coordinates":[9.57981003091424,44.5129057314169,0]},"properties":{"CODICEIMS":"NG2BED0240001","DENOMSIMS":"Ca di Boso","CODACQUED":"NG2BED0240","ZIMPIANT":-999,"ANNOREAL":1990,"TIPFUNZION":"CO","NUMPOMPE":2,"PORTNOGRUP":-999,"POTCONTR":11,"PREPORTNOM":100,"GRUPELETTR":"N","STRUMMISUR":"N","TELECONTR":"N","STATOSERV":"S"}},
{"type":"Feature","geometry":{"type":"Point","coordinates":[9.60790856744447,44.5120230251558,0]},"properties":{"CODICEIMS":"NG2BED0215001","DENOMSIMS":"Castagnola","CODACQUED":"NG2BED0215","ZIMPIANT":-999,"ANNOREAL":1975,"TIPFUNZION":"CO","NUMPOMPE":2,"PORTNOGRUP":-999,"POTCONTR":16.5,"PREPORTNOM":40,"GRUPELETTR":"N","STRUMMISUR":"N","TELECONTR":"N","STATOSERV":"S"}},
{"type":"Feature","geometry":{"type":"Point","coordinates":[9.56870933020257,44.5220102127283,0]},"properties":{"CODICEIMS":"NG2BED0245001","DENOMSIMS":"Tomba","CODACQUED":"NG2BED0245","ZIMPIANT":840,"ANNOREAL":1990,"TIPFUNZION":"OR","NUMPOMPE":2,"PORTNOGRUP":-999,"POTCONTR":11,"PREPORTNOM":70,"GRUPELETTR":"N","STRUMMISUR":"N","TELECONTR":"N","STATOSERV":"S"}},
{"type":"Feature","geometry":{"type":"Point","coordinates":[9.641242,44.6369730009432,0]},"properties":{"CODICEIMS":"NG2BAR0509001","DENOMSIMS":"Monte della Madonna","CODACQUED":"NG2BAR0509","ZIMPIANT":972,"ANNOREAL":1960,"TIPFUNZION":"PE","NUMPOMPE":1,"PORTNOGRUP":0.0005,"POTCONTR":1.7,"PREPORTNOM":50,"GRUPELETTR":"N","STRUMMISUR":"N","TELECONTR":"N","STATOSERV":"S"}},
{"type":"Feature","geometry":{"type":"Point","coordinates":[9.816414575236,44.6171741390633,0]},"properties":{"CODICEIMS":"NG2VAR1033001","DENOMSIMS":"Campo del Gallo","CODACQUED":"NG2VAR1033","ZIMPIANT":680,"ANNOREAL":-999,"TIPFUNZION":"CO","NUMPOMPE":2,"PORTNOGRUP":0.005,"POTCONTR":30,"PREPORTNOM":-999,"GRUPELETTR":"N","STRUMMISUR":"N","TELECONTR":"N","STATOSERV":"S"}},
{"type":"Feature","geometry":{"type":"Point","coordinates":[9.902712,44.6521530009432,0]},"properties":{"CODICEIMS":"NG2VAR1002001","DENOMSIMS":"Contile Alto","CODACQUED":"NG2VAR1002","ZIMPIANT":698,"ANNOREAL":1983,"TIPFUNZION":"CO","NUMPOMPE":2,"PORTNOGRUP":0.00083,"POTCONTR":11,"PREPORTNOM":75,"GRUPELETTR":"N","STRUMMISUR":"N","TELECONTR":"N","STATOSERV":"S"}},
{"type":"Feature","geometry":{"type":"Point","coordinates":[9.9023790674133,44.651353358192,0]},"properties":{"CODICEIMS":"NG2VAR1002002","DENOMSIMS":"Contile Basso","CODACQUED":"NG2VAR1002","ZIMPIANT":710,"ANNOREAL":1983,"TIPFUNZION":"CO","NUMPOMPE":1,"PORTNOGRUP":0.00012,"POTCONTR":11,"PREPORTNOM":-999,"GRUPELETTR":"N","STRUMMISUR":"N","TELECONTR":"N","STATOSERV":"S"}},
{"type":"Feature","geometry":{"type":"Point","coordinates":[9.906233,44.6479810009432,0]},"properties":{"CODICEIMS":"NG2VAR1026001","DENOMSIMS":"Lagadello DA CANCELLARE","CODACQUED":"NG2VAR1026","ZIMPIANT":683,"ANNOREAL":-999,"TIPFUNZION":"CO","NUMPOMPE":1,"PORTNOGRUP":-999,"POTCONTR":-999,"PREPORTNOM":-999,"GRUPELETTR":"N","STRUMMISUR":"N","TELECONTR":"S","STATOSERV":"S"}},
{"type":"Feature","geometry":{"type":"Point","coordinates":[9.8669189793766,44.6295474895667,0]},"properties":{"CODICEIMS":"NG2VAR1028002","DENOMSIMS":"Pessola","CODACQUED":"NG2VAR1028","ZIMPIANT":820,"ANNOREAL":2006,"TIPFUNZION":"CO","NUMPOMPE":2,"PORTNOGRUP":0.001,"POTCONTR":6.6,"PREPORTNOM":100,"GRUPELETTR":"N","STRUMMISUR":"N","TELECONTR":"N","STATOSERV":"S"}},
{"type":"Feature","geometry":{"type":"Point","coordinates":[9.80721207152625,44.6945684341657,0]},"properties":{"CODICEIMS":"NG2BOR1106001","DENOMSIMS":"Zani","CODACQUED":"NG2BOR1106","ZIMPIANT":608,"ANNOREAL":2009,"TIPFUNZION":"PE","NUMPOMPE":2,"PORTNOGRUP":0.001,"POTCONTR":6.6,"PREPORTNOM":100,"GRUPELETTR":"N","STRUMMISUR":"N","TELECONTR":"N","STATOSERV":"S"}},
{"type":"Feature","geometry":{"type":"Point","coordinates":[9.79290368468641,44.7103927478303,0]},"properties":{"CODICEIMS":"NG2BOR1109002","DENOMSIMS":"Ronchetti","CODACQUED":"NG2BOR1109","ZIMPIANT":715,"ANNOREAL":1982,"TIPFUNZION":"CO","NUMPOMPE":2,"PORTNOGRUP":0.003,"POTCONTR":15,"PREPORTNOM":100,"GRUPELETTR":"N","STRUMMISUR":"N","TELECONTR":"N","STATOSERV":"S"}},
{"type":"Feature","geometry":{"type":"Point","coordinates":[9.7884788638072,44.7140382823856,0]},"properties":{"CODICEIMS":"NG2BOR1100001","DENOMSIMS":"Pian di Rovina","CODACQUED":"NG2BOR1100","ZIMPIANT":798,"ANNOREAL":1982,"TIPFUNZION":"CO","NUMPOMPE":2,"PORTNOGRUP":0.003,"POTCONTR":22,"PREPORTNOM":100,"GRUPELETTR":"N","STRUMMISUR":"N","TELECONTR":"N","STATOSERV":"S"}},
{"type":"Feature","geometry":{"type":"Point","coordinates":[9.900886,44.7330820009432,0]},"properties":{"CODICEIMS":"NG2PEL0407006","DENOMSIMS":"Casa Bianca","CODACQUED":"NG2PEL0407","ZIMPIANT":520,"ANNOREAL":2017,"TIPFUNZION":"OR","NUMPOMPE":1,"PORTNOGRUP":0.0003,"POTCONTR":7,"PREPORTNOM":30,"GRUPELETTR":"N","STRUMMISUR":"N","TELECONTR":"N","STATOSERV":"S"}},
{"type":"Feature","geometry":{"type":"Point","coordinates":[9.95275983244991,44.7312196290301,0]},"properties":{"CODICEIMS":"NG2PEL0407005","DENOMSIMS":"Mariano Belvedere","CODACQUED":"NG2PEL0407","ZIMPIANT":602,"ANNOREAL":1988,"TIPFUNZION":"CO","NUMPOMPE":1,"PORTNOGRUP":0.0003,"POTCONTR":11,"PREPORTNOM":50,"GRUPELETTR":"N","STRUMMISUR":"N","TELECONTR":"N","STATOSERV":"S"}},
{"type":"Feature","geometry":{"type":"Point","coordinates":[9.97661657914242,44.7257768217642,0]},"properties":{"CODICEIMS":"NG2PEL0407002","DENOMSIMS":"Possessioni","CODACQUED":"NG2PEL0407","ZIMPIANT":504,"ANNOREAL":2017,"TIPFUNZION":"CO","NUMPOMPE":1,"PORTNOGRUP":-999,"POTCONTR":-999,"PREPORTNOM":-999,"GRUPELETTR":"N","STRUMMISUR":"N","TELECONTR":"N","STATOSERV":"S"}},
{"type":"Feature","geometry":{"type":"Point","coordinates":[9.89916678045227,44.7523495505688,0]},"properties":{"CODICEIMS":"NG2PEL0407003","DENOMSIMS":"Besozzola (Boschini)","CODACQUED":"NG2PEL0407","ZIMPIANT":540,"ANNOREAL":2000,"TIPFUNZION":"CO","NUMPOMPE":2,"PORTNOGRUP":0.0015,"POTCONTR":20,"PREPORTNOM":100,"GRUPELETTR":"N","STRUMMISUR":"N","TELECONTR":"N","STATOSERV":"S"}},
{"type":"Feature","geometry":{"type":"Point","coordinates":[9.89100621905632,44.7531882941094,0]},"properties":{"CODICEIMS":"NG2PEL0407004","DENOMSIMS":"Fondovalle","CODACQUED":"NG2PEL0407","ZIMPIANT":345,"ANNOREAL":2000,"TIPFUNZION":"CO","NUMPOMPE":2,"PORTNOGRUP":0.0015,"POTCONTR":20,"PREPORTNOM":100,"GRUPELETTR":"N","STRUMMISUR":"N","TELECONTR":"N","STATOSERV":"S"}},
{"type":"Feature","geometry":{"type":"Point","coordinates":[9.90927047259118,44.7582170246823,0]},"properties":{"CODICEIMS":"NG2PEL0412001","DENOMSIMS":"Caracara (Montanari)","CODACQUED":"NG2PEL0412","ZIMPIANT":-999,"ANNOREAL":1961,"TIPFUNZION":"CO","NUMPOMPE":2,"PORTNOGRUP":0.0005,"POTCONTR":7,"PREPORTNOM":60,"GRUPELETTR":"N","STRUMMISUR":"N","TELECONTR":"N","STATOSERV":"S"}},
{"type":"Feature","geometry":{"type":"Point","coordinates":[9.92809291416227,44.7791279626445,0]},"properties":{"CODICEIMS":"NG2PEL0410001","DENOMSIMS":"Grotta","CODACQUED":"NG2PEL0410","ZIMPIANT":445,"ANNOREAL":1970,"TIPFUNZION":"CO","NUMPOMPE":2,"PORTNOGRUP":0.0005,"POTCONTR":3.3,"PREPORTNOM":60,"GRUPELETTR":"N","STRUMMISUR":"N","TELECONTR":"N","STATOSERV":"S"}},
{"type":"Feature","geometry":{"type":"Point","coordinates":[9.92825089983375,44.7196142954966,0]},"properties":{"CODICEIMS":"NG2PEL0409001","DENOMSIMS":"Canedolo (Careno)","CODACQUED":"NG2PEL0409","ZIMPIANT":515,"ANNOREAL":2000,"TIPFUNZION":"CO","NUMPOMPE":2,"PORTNOGRUP":0.0005,"POTCONTR":11,"PREPORTNOM":100,"GRUPELETTR":"N","STRUMMISUR":"N","TELECONTR":"N","STATOSERV":"S"}},
{"type":"Feature","geometry":{"type":"Point","coordinates":[9.86643993682359,44.7203298921299,0]},"properties":{"CODICEIMS":"NG2PEL0406001","DENOMSIMS":"Castellaro","CODACQUED":"NG2PEL0406","ZIMPIANT":707,"ANNOREAL":1967,"TIPFUNZION":"CO","NUMPOMPE":1,"PORTNOGRUP":0.0008,"POTCONTR":11,"PREPORTNOM":50,"GRUPELETTR":"N","STRUMMISUR":"N","TELECONTR":"N","STATOSERV":"S"}},
{"type":"Feature","geometry":{"type":"Point","coordinates":[9.86852861563057,44.7161548499262,0]},"properties":{"CODICEIMS":"NG2PEL0406002","DENOMSIMS":"Volpi","CODACQUED":"NG2PEL0406","ZIMPIANT":583,"ANNOREAL":1976,"TIPFUNZION":"CO","NUMPOMPE":2,"PORTNOGRUP":0.0012,"POTCONTR":6.6,"PREPORTNOM":100,"GRUPELETTR":"N","STRUMMISUR":"N","TELECONTR":"N","STATOSERV":"S"}},
{"type":"Feature","geometry":{"type":"Point","coordinates":[10.0197379289894,44.6855332312159,0]},"properties":{"CODICEIMS":"NG2VDM1400002","DENOMSIMS":"La Peschiera Capoluogo","CODACQUED":"NG2VDM1400","ZIMPIANT":177,"ANNOREAL":1972,"TIPFUNZION":"CO","NUMPOMPE":2,"PORTNOGRUP":0.005,"POTCONTR":53,"PREPORTNOM":70,"GRUPELETTR":"N","STRUMMISUR":"S","TELECONTR":"S","STATOSERV":"S"}},
{"type":"Feature","geometry":{"type":"Point","coordinates":[10.029136,44.6821640009432,0]},"properties":{"CODICEIMS":"NG2VDM1405001","DENOMSIMS":"Autodromo","CODACQUED":"NG2VDM1405","ZIMPIANT":180,"ANNOREAL":1995,"TIPFUNZION":"CO","NUMPOMPE":1,"PORTNOGRUP":-999,"POTCONTR":10,"PREPORTNOM":30,"GRUPELETTR":"N","STRUMMISUR":"N","TELECONTR":"N","STATOSERV":"S"}},
{"type":"Feature","geometry":{"type":"Point","coordinates":[9.98199896049098,44.6148057835096,0]},"properties":{"CODICEIMS":"NG2SOL0600002","DENOMSIMS":"Solignano pozzo","CODACQUED":"NG2SOL0600","ZIMPIANT":225,"ANNOREAL":1965,"TIPFUNZION":"PE","NUMPOMPE":2,"PORTNOGRUP":-999,"POTCONTR":-999,"PREPORTNOM":-999,"GRUPELETTR":"N","STRUMMISUR":"N","TELECONTR":"N","STATOSERV":"S"}},
{"type":"Feature","geometry":{"type":"Point","coordinates":[9.98112538570515,44.6197431835287,0]},"properties":{"CODICEIMS":"NG2SOL0600001","DENOMSIMS":"Ulia","CODACQUED":"NG2SOL0600","ZIMPIANT":350,"ANNOREAL":2018,"TIPFUNZION":"PE","NUMPOMPE":2,"PORTNOGRUP":-999,"POTCONTR":6,"PREPORTNOM":-999,"GRUPELETTR":"N","STRUMMISUR":"N","TELECONTR":"N","STATOSERV":"S"}},
{"type":"Feature","geometry":{"type":"Point","coordinates":[10.039931,44.6518940009432,0]},"properties":{"CODICEIMS":"NG2SOL0646001","DENOMSIMS":"Pozzo Silani","CODACQUED":"NG2SOL0646","ZIMPIANT":188,"ANNOREAL":1989,"TIPFUNZION":"CO","NUMPOMPE":1,"PORTNOGRUP":-999,"POTCONTR":6.6,"PREPORTNOM":-999,"GRUPELETTR":"N","STRUMMISUR":"N","TELECONTR":"N","STATOSERV":"S"}},
{"type":"Feature","geometry":{"type":"Point","coordinates":[10.066796,44.6746560009432,0]},"properties":{"CODICEIMS":"NG2SOL0645001","DENOMSIMS":"Rubbiano","CODACQUED":"NG2SOL0645","ZIMPIANT":159,"ANNOREAL":1993,"TIPFUNZION":"CO","NUMPOMPE":2,"PORTNOGRUP":-999,"POTCONTR":30,"PREPORTNOM":-999,"GRUPELETTR":"N","STRUMMISUR":"N","TELECONTR":"N","STATOSERV":"S"}},
{"type":"Feature","geometry":{"type":"Point","coordinates":[9.95610646720408,44.6619060539054,0]},"properties":{"CODICEIMS":"NG2SOL0611001","DENOMSIMS":"Tintori","CODACQUED":"NG2SOL0611","ZIMPIANT":395,"ANNOREAL":1987,"TIPFUNZION":"CO","NUMPOMPE":2,"PORTNOGRUP":0.0005,"POTCONTR":3.3,"PREPORTNOM":23,"GRUPELETTR":"N","STRUMMISUR":"N","TELECONTR":"N","STATOSERV":"S"}},
{"type":"Feature","geometry":{"type":"Point","coordinates":[9.94117513861735,44.6654589125402,0]},"properties":{"CODICEIMS":"NG2SOL0608001","DENOMSIMS":"Filippi","CODACQUED":"NG2SOL0608","ZIMPIANT":455,"ANNOREAL":1983,"TIPFUNZION":"CO","NUMPOMPE":2,"PORTNOGRUP":0.0003,"POTCONTR":6.6,"PREPORTNOM":28,"GRUPELETTR":"N","STRUMMISUR":"N","TELECONTR":"N","STATOSERV":"S"}},
{"type":"Feature","geometry":{"type":"Point","coordinates":[10.005457156751,44.6621083682485,0]},"properties":{"CODICEIMS":"NG2SOL0610001","DENOMSIMS":"Fosio","CODACQUED":"NG2SOL0647","ZIMPIANT":400,"ANNOREAL":-999,"TIPFUNZION":"CO","NUMPOMPE":2,"PORTNOGRUP":-999,"POTCONTR":3.3,"PREPORTNOM":-999,"GRUPELETTR":"N","STRUMMISUR":"N","TELECONTR":"N","STATOSERV":"S"}},
{"type":"Feature","geometry":{"type":"Point","coordinates":[9.92256684141418,44.6135273953047,0]},"properties":{"CODICEIMS":"NG2SOL0647001","DENOMSIMS":"Murolo","CODACQUED":"NG2SOL0647","ZIMPIANT":895,"ANNOREAL":1965,"TIPFUNZION":"CO","NUMPOMPE":2,"PORTNOGRUP":0.0005,"POTCONTR":6.6,"PREPORTNOM":80,"GRUPELETTR":"N","STRUMMISUR":"N","TELECONTR":"N","STATOSERV":"S"}},
{"type":"Feature","geometry":{"type":"Point","coordinates":[10.0995504917699,44.6865664583963,0]},"properties":{"CODICEIMS":"NG2FOR0700001","DENOMSIMS":"Case Tebaldi - Montecroce","CODACQUED":"NG2FOR0700","ZIMPIANT":203,"ANNOREAL":-999,"TIPFUNZION":"CO","NUMPOMPE":2,"PORTNOGRUP":0.014,"POTCONTR":66,"PREPORTNOM":-999,"GRUPELETTR":"N","STRUMMISUR":"N","TELECONTR":"S","STATOSERV":"S"}},
{"type":"Feature","geometry":{"type":"Point","coordinates":[10.0447777768053,44.6440032598984,0]},"properties":{"CODICEIMS":"NG2FOR0701001","DENOMSIMS":"Pozzo Galgana","CODACQUED":"NG2FOR0701","ZIMPIANT":-999,"ANNOREAL":1975,"TIPFUNZION":"PE","NUMPOMPE":1,"PORTNOGRUP":0.01,"POTCONTR":40,"PREPORTNOM":80,"GRUPELETTR":"N","STRUMMISUR":"N","TELECONTR":"N","STATOSERV":"S"}},
{"type":"Feature","geometry":{"type":"Point","coordinates":[10.1454368244241,44.6355788981045,0]},"properties":{"CODICEIMS":"NG2FOR0704001","DENOMSIMS":"Piana di San Martino","CODACQUED":"NG2FOR0704","ZIMPIANT":529,"ANNOREAL":1998,"TIPFUNZION":"PE","NUMPOMPE":2,"PORTNOGRUP":0.03,"POTCONTR":132,"PREPORTNOM":70,"GRUPELETTR":"N","STRUMMISUR":"N","TELECONTR":"S","STATOSERV":"S"}},
{"type":"Feature","geometry":{"type":"Point","coordinates":[10.0677867595978,44.5891433724617,0]},"properties":{"CODICEIMS":"NG2TER0818001","DENOMSIMS":"Villa alto","CODACQUED":"NG2TER0816","ZIMPIANT":-999,"ANNOREAL":-999,"TIPFUNZION":"CO","NUMPOMPE":2,"PORTNOGRUP":0.0015,"POTCONTR":43,"PREPORTNOM":100,"GRUPELETTR":"N","STRUMMISUR":"N","TELECONTR":"N","STATOSERV":"S"}},
{"type":"Feature","geometry":{"type":"Point","coordinates":[10.066359649489,44.5906236672969,0]},"properties":{"CODICEIMS":"NG2TER0818002","DENOMSIMS":"Villa","CODACQUED":"NG2TER0818","ZIMPIANT":-999,"ANNOREAL":-999,"TIPFUNZION":"CO","NUMPOMPE":2,"PORTNOGRUP":0.0005,"POTCONTR":43,"PREPORTNOM":30,"GRUPELETTR":"N","STRUMMISUR":"N","TELECONTR":"N","STATOSERV":"S"}},
{"type":"Feature","geometry":{"type":"Point","coordinates":[10.037627,44.5867390009431,0]},"properties":{"CODICEIMS":"NG2TER0809001","DENOMSIMS":"Cassio","CODACQUED":"NG2TER0809","ZIMPIANT":-999,"ANNOREAL":-999,"TIPFUNZION":"PE","NUMPOMPE":2,"PORTNOGRUP":0.0003,"POTCONTR":1.7,"PREPORTNOM":40,"GRUPELETTR":"N","STRUMMISUR":"N","TELECONTR":"N","STATOSERV":"S"}},
{"type":"Feature","geometry":{"type":"Point","coordinates":[9.83446668225949,44.6453494818929,0]},"properties":{"CODICEIMS":"NG2VAR1021001","DENOMSIMS":"Corlina","CODACQUED":"NG2VAR1021","ZIMPIANT":-999,"ANNOREAL":2002,"TIPFUNZION":"CO","NUMPOMPE":2,"PORTNOGRUP":0.001,"POTCONTR":7,"PREPORTNOM":100,"GRUPELETTR":"N","STRUMMISUR":"N","TELECONTR":"N","STATOSERV":"S"}},
{"type":"Feature","geometry":{"type":"Point","coordinates":[10.0197352464173,44.6855231380624,0]},"properties":{"CODICEIMS":"NG2VDM1400005","DENOMSIMS":"La Peschiera Castagnola","CODACQUED":"NG2VDM1400","ZIMPIANT":177,"ANNOREAL":1972,"TIPFUNZION":"CO","NUMPOMPE":4,"PORTNOGRUP":0.004,"POTCONTR":53,"PREPORTNOM":100,"GRUPELETTR":"N","STRUMMISUR":"N","TELECONTR":"N","STATOSERV":"S"}},
{"type":"Feature","geometry":{"type":"Point","coordinates":[10.039948543795,44.6517976534965,0]},"properties":{"CODICEIMS":"NG2SOL0646002","DENOMSIMS":"Pozzo Silani - Oriano","CODACQUED":"NG2SOL0646","ZIMPIANT":188,"ANNOREAL":1989,"TIPFUNZION":"CO","NUMPOMPE":1,"PORTNOGRUP":-999,"POTCONTR":6.6,"PREPORTNOM":-999,"GRUPELETTR":"N","STRUMMISUR":"N","TELECONTR":"N","STATOSERV":"S"}},
{"type":"Feature","geometry":{"type":"Point","coordinates":[10.0995558861519,44.6865606008073,0]},"properties":{"CODICEIMS":"NG2FOR0700004","DENOMSIMS":"Case Tebaldi - Caselle","CODACQUED":"NG2FOR0700","ZIMPIANT":203,"ANNOREAL":-999,"TIPFUNZION":"CO","NUMPOMPE":3,"PORTNOGRUP":0.002,"POTCONTR":-999,"PREPORTNOM":-999,"GRUPELETTR":"N","STRUMMISUR":"N","TELECONTR":"S","STATOSERV":"S"}},
{"type":"Feature","geometry":{"type":"Point","coordinates":[10.005583,44.6860300009432,0]},"properties":{"CODICEIMS":"NG2VDM1400006","DENOMSIMS":"Pozzo Castello","CODACQUED":"NG2VDM1400","ZIMPIANT":189,"ANNOREAL":2003,"TIPFUNZION":"PE","NUMPOMPE":1,"PORTNOGRUP":0.005,"POTCONTR":40,"PREPORTNOM":20,"GRUPELETTR":"N","STRUMMISUR":"S","TELECONTR":"N","STATOSERV":"S"}},
{"type":"Feature","geometry":{"type":"Point","coordinates":[10.005214,44.6857950009432,0]},"properties":{"CODICEIMS":"NG2VDM1400007","DENOMSIMS":"Pozzo Castello I","CODACQUED":"NG2VDM1400","ZIMPIANT":189,"ANNOREAL":2003,"TIPFUNZION":"PE","NUMPOMPE":1,"PORTNOGRUP":0.0025,"POTCONTR":40,"PREPORTNOM":20,"GRUPELETTR":"N","STRUMMISUR":"S","TELECONTR":"N","STATOSERV":"S"}},
{"type":"Feature","geometry":{"type":"Point","coordinates":[9.79110756389694,44.4625054479873,0]},"properties":{"CODICEIMS":"NG2BVT135001","DENOMSIMS":"Pozzo Valleto","CODACQUED":"NG2BVT0135","ZIMPIANT":511,"ANNOREAL":-999,"TIPFUNZION":"OR","NUMPOMPE":1,"PORTNOGRUP":0.01,"POTCONTR":75,"PREPORTNOM":-999,"GRUPELETTR":"N","STRUMMISUR":"N","TELECONTR":"N","STATOSERV":"N"}},
{"type":"Feature","geometry":{"type":"Point","coordinates":[9.61510115439658,44.4478619651828,0]},"properties":{"CODICEIMS":"NG2TOR1301001","DENOMSIMS":"Sollevamento Pozzo Iareto","CODACQUED":"NG2TOR1301","ZIMPIANT":903,"ANNOREAL":-999,"TIPFUNZION":"PE","NUMPOMPE":1,"PORTNOGRUP":-999,"POTCONTR":6.6,"PREPORTNOM":-999,"GRUPELETTR":"N","STRUMMISUR":"N","TELECONTR":"N","STATOSERV":"S"}},
{"type":"Feature","geometry":{"type":"Point","coordinates":[9.8508413037027,44.5625746294361,0]},"properties":{"CODICEIMS":"NG2VAL0908001","DENOMSIMS":"Lago Pesci","CODACQUED":"NG2VAL0908","ZIMPIANT":715,"ANNOREAL":2010,"TIPFUNZION":"CO","NUMPOMPE":2,"PORTNOGRUP":-999,"POTCONTR":6.6,"PREPORTNOM":100,"GRUPELETTR":"N","STRUMMISUR":"N","TELECONTR":"N","STATOSERV":"S"}},
{"type":"Feature","geometry":{"type":"Point","coordinates":[10.1696084622746,44.6327404874928,0]},"properties":{"CODICEIMS":"NG2FOR0704003","DENOMSIMS":"Pozzi Baganza 1 (Molino secchione)","CODACQUED":"NG2FOR0704","ZIMPIANT":-999,"ANNOREAL":1975,"TIPFUNZION":"CO","NUMPOMPE":2,"PORTNOGRUP":0.036,"POTCONTR":150,"PREPORTNOM":100,"GRUPELETTR":"N","STRUMMISUR":"N","TELECONTR":"S","STATOSERV":"S"}},
{"type":"Feature","geometry":{"type":"Point","coordinates":[10.1697468601822,44.6328970903205,0]},"properties":{"CODICEIMS":"NG2FOR0704004","DENOMSIMS":"Pozzi Baganza 2 (Molino secchione)","CODACQUED":"NG2FOR0704","ZIMPIANT":-999,"ANNOREAL":1975,"TIPFUNZION":"CO","NUMPOMPE":1,"PORTNOGRUP":-999,"POTCONTR":-999,"PREPORTNOM":-999,"GRUPELETTR":"N","STRUMMISUR":"N","TELECONTR":"S","STATOSERV":"S"}},
{"type":"Feature","geometry":{"type":"Point","coordinates":[10.0291302165373,44.6821626239275,0]},"properties":{"CODICEIMS":"NG2VDM1405002","DENOMSIMS":"Autodromo Fagnano","CODACQUED":"NG2VDM1405","ZIMPIANT":180,"ANNOREAL":1995,"TIPFUNZION":"CO","NUMPOMPE":1,"PORTNOGRUP":-999,"POTCONTR":10,"PREPORTNOM":-999,"GRUPELETTR":"N","STRUMMISUR":"N","TELECONTR":"N","STATOSERV":"S"}},
{"type":"Feature","geometry":{"type":"Point","coordinates":[9.95473448581975,44.6885345138619,0]},"properties":{"CODICEIMS":"NG2VDM1401003","DENOMSIMS":"Rubieto","CODACQUED":"NG2VDM1401","ZIMPIANT":400,"ANNOREAL":1982,"TIPFUNZION":"CO","NUMPOMPE":2,"PORTNOGRUP":0.0015,"POTCONTR":17,"PREPORTNOM":100,"GRUPELETTR":"N","STRUMMISUR":"N","TELECONTR":"N","STATOSERV":"S"}},
{"type":"Feature","geometry":{"type":"Point","coordinates":[10.0238399453551,44.6942816506852,0]},"properties":{"CODICEIMS":"NG2VDM1400001","DENOMSIMS":"Castagnola","CODACQUED":"NG2VDM1400","ZIMPIANT":320,"ANNOREAL":1972,"TIPFUNZION":"CO","NUMPOMPE":2,"PORTNOGRUP":0.004,"POTCONTR":53,"PREPORTNOM":100,"GRUPELETTR":"N","STRUMMISUR":"N","TELECONTR":"N","STATOSERV":"S"}},
{"type":"Feature","geometry":{"type":"Point","coordinates":[10.0068398465926,44.6871589426077,0]},"properties":{"CODICEIMS":"NG2VDM1400003","DENOMSIMS":"Castello per Capoluogo","CODACQUED":"NG2VDM1400","ZIMPIANT":185,"ANNOREAL":2003,"TIPFUNZION":"CO","NUMPOMPE":3,"PORTNOGRUP":0.002,"POTCONTR":40,"PREPORTNOM":60,"GRUPELETTR":"N","STRUMMISUR":"N","TELECONTR":"N","STATOSERV":"S"}},
{"type":"Feature","geometry":{"type":"Point","coordinates":[10.0067872861404,44.6871701566063,0]},"properties":{"CODICEIMS":"NG2VDM1400004","DENOMSIMS":"Castello per Monte Mariolo","CODACQUED":"NG2VDM1400","ZIMPIANT":185,"ANNOREAL":-999,"TIPFUNZION":"PE","NUMPOMPE":2,"PORTNOGRUP":-999,"POTCONTR":40,"PREPORTNOM":80,"GRUPELETTR":"N","STRUMMISUR":"N","TELECONTR":"N","STATOSERV":"S"}},
{"type":"Feature","geometry":{"type":"Point","coordinates":[10.0354470530933,44.687185912498,0]},"properties":{"CODICEIMS":"NG2VDM1402001","DENOMSIMS":"Piani di Riva","CODACQUED":"NG2VDM1402","ZIMPIANT":170,"ANNOREAL":1975,"TIPFUNZION":"CO","NUMPOMPE":2,"PORTNOGRUP":-999,"POTCONTR":10,"PREPORTNOM":-999,"GRUPELETTR":"N","STRUMMISUR":"N","TELECONTR":"N","STATOSERV":"S"}},
{"type":"Feature","geometry":{"type":"Point","coordinates":[9.97500856038801,44.6828131764975,0]},"properties":{"CODICEIMS":"NG2VDM1401002","DENOMSIMS":"Il Castello di Seravalle","CODACQUED":"NG2VDM1401","ZIMPIANT":375,"ANNOREAL":-999,"TIPFUNZION":"CO","NUMPOMPE":1,"PORTNOGRUP":-999,"POTCONTR":40,"PREPORTNOM":-999,"GRUPELETTR":"N","STRUMMISUR":"N","TELECONTR":"N","STATOSERV":"S"}},
{"type":"Feature","geometry":{"type":"Point","coordinates":[9.96318666315254,44.6817332247417,0]},"properties":{"CODICEIMS":"NG2VDM1401001","DENOMSIMS":"Serravalle Pradarolo","CODACQUED":"NG2VDM1401","ZIMPIANT":215,"ANNOREAL":1980,"TIPFUNZION":"CO","NUMPOMPE":3,"PORTNOGRUP":-999,"POTCONTR":43.8,"PREPORTNOM":-999,"GRUPELETTR":"N","STRUMMISUR":"N","TELECONTR":"N","STATOSERV":"S"}},
{"type":"Feature","geometry":{"type":"Point","coordinates":[9.84928956603382,44.6598076559299,0]},"properties":{"CODICEIMS":"NG2VAR1021002","DENOMSIMS":"Sollevamento Pontremoli","CODACQUED":"NG2VAR1021","ZIMPIANT":467,"ANNOREAL":2019,"TIPFUNZION":"PE","NUMPOMPE":1,"PORTNOGRUP":0.0024,"POTCONTR":3,"PREPORTNOM":82,"GRUPELETTR":"N","STRUMMISUR":"S","TELECONTR":"N","STATOSERV":"S"}},
{"type":"Feature","geometry":{"type":"Point","coordinates":[10.0949687354724,44.6826957728946,0]},"properties":{"CODICEIMS":"NG2FOR0700002","DENOMSIMS":"Pozzo Micone","CODACQUED":"NG2FOR0700","ZIMPIANT":-999,"ANNOREAL":-999,"TIPFUNZION":"OR","NUMPOMPE":1,"PORTNOGRUP":0.01,"POTCONTR":22,"PREPORTNOM":70,"GRUPELETTR":"N","STRUMMISUR":"N","TELECONTR":"N","STATOSERV":"S"}},
{"type":"Feature","geometry":{"type":"Point","coordinates":[9.72375174566929,44.6180228314378,0]},"properties":{"CODICEIMS":"NG2BAR0577002","DENOMSIMS":"Sollevamento Landino","CODACQUED":"NG2BAR0577","ZIMPIANT":407,"ANNOREAL":-999,"TIPFUNZION":"PE","NUMPOMPE":2,"PORTNOGRUP":0.012,"POTCONTR":-999,"PREPORTNOM":37,"GRUPELETTR":"N","STRUMMISUR":"N","TELECONTR":"S","STATOSERV":"S"}},
{"type":"Feature","geometry":{"type":"Point","coordinates":[10.0595663545046,44.6860632639829,0]},"properties":{"CODICEIMS":"NG2VDM1404001","DENOMSIMS":"Bagni Venturini","CODACQUED":"NG2VDM1404","ZIMPIANT":153,"ANNOREAL":2002,"TIPFUNZION":"CO","NUMPOMPE":1,"PORTNOGRUP":-999,"POTCONTR":15,"PREPORTNOM":100,"GRUPELETTR":"N","STRUMMISUR":"N","TELECONTR":"N","STATOSERV":"S"}},
{"type":"Feature","geometry":{"type":"Point","coordinates":[10.0893781402665,44.6783529158487,0]},"properties":{"CODICEIMS":"NG2FOR0700003","DENOMSIMS":"Gallerie filtranti fiume Taro","CODACQUED":"NG2FOR0700","ZIMPIANT":-999,"ANNOREAL":-999,"TIPFUNZION":"CO","NUMPOMPE":4,"PORTNOGRUP":0.06,"POTCONTR":83,"PREPORTNOM":70,"GRUPELETTR":"N","STRUMMISUR":"N","TELECONTR":"S","STATOSERV":"S"}},
{"type":"Feature","geometry":{"type":"Point","coordinates":[10.0894743260669,44.6786949633145,0]},"properties":{"CODICEIMS":"NG2FOR0700005","DENOMSIMS":"Sollevamento Pozzo Gallerie Filtranti","CODACQUED":"NG2FOR0700","ZIMPIANT":-999,"ANNOREAL":-999,"TIPFUNZION":"CO","NUMPOMPE":1,"PORTNOGRUP":-999,"POTCONTR":-999,"PREPORTNOM":-999,"GRUPELETTR":"N","STRUMMISUR":"N","TELECONTR":"N","STATOSERV":"S"}},
{"type":"Feature","geometry":{"type":"Point","coordinates":[9.79323668147506,44.7212770443222,0]},"properties":{"CODICEIMS":"NG2BOR1100003","DENOMSIMS":"Pozzo Bore","CODACQUED":"NG2BOR1100","ZIMPIANT":-999,"ANNOREAL":-999,"TIPFUNZION":"CO","NUMPOMPE":1,"PORTNOGRUP":-999,"POTCONTR":-999,"PREPORTNOM":-999,"GRUPELETTR":"N","STRUMMISUR":"N","TELECONTR":"N","STATOSERV":"S"}},
{"type":"Feature","geometry":{"type":"Point","coordinates":[9.76027967390347,44.6713574076471,0]},"properties":{"CODICEIMS":"NG2BOR1102001","DENOMSIMS":"Lagacci","CODACQUED":"NG2BOR1102","ZIMPIANT":905,"ANNOREAL":-999,"TIPFUNZION":"OR","NUMPOMPE":2,"PORTNOGRUP":-999,"POTCONTR":-999,"PREPORTNOM":-999,"GRUPELETTR":"N","STRUMMISUR":"N","TELECONTR":"N","STATOSERV":"N"}},
{"type":"Feature","geometry":{"type":"Point","coordinates":[9.61020803775931,44.5071916654101,0]},"properties":{"CODICEIMS":"NG2BED0228001","DENOMSIMS":"Salarolo","CODACQUED":"NG2BED0228","ZIMPIANT":-999,"ANNOREAL":1990,"TIPFUNZION":"CO","NUMPOMPE":2,"PORTNOGRUP":-999,"POTCONTR":11,"PREPORTNOM":50,"GRUPELETTR":"N","STRUMMISUR":"N","TELECONTR":"S","STATOSERV":"S"}},
{"type":"Feature","geometry":{"type":"Point","coordinates":[9.72372140988128,44.6169143566852,0]},"properties":{"CODICEIMS":"NG2BAR0577001","DENOMSIMS":"Pozzo Landino","CODACQUED":"NG2BAR0577","ZIMPIANT":408,"ANNOREAL":1980,"TIPFUNZION":"PE","NUMPOMPE":2,"PORTNOGRUP":0.012,"POTCONTR":-999,"PREPORTNOM":2,"GRUPELETTR":"N","STRUMMISUR":"N","TELECONTR":"N","STATOSERV":"S"}}
]}
