{"type":"FeatureCollection", "features":[
{"type":"Feature","geometry":{"type":"Point","coordinates":[9.89486180446889,44.5111274817666,0]},"properties":{"CODICESER":"NG2BVT0101003","DENOMSERB":"Serbatoio di raccolta dei Torrioni","CODACQUED":"NG2BVT0101","ZSERBATOIO":860,"VOLUMUTILE":5,"QUOTMINESE":-999,"QUOTMAXESE":855,"FUNZIOSER":"CO","TIPSERBAT":"SI","ANNOREAL":1960,"TIPFUNZION":"CO","TELECONTR":"N","STATOSERV":"S"}},
{"type":"Feature","geometry":{"type":"Point","coordinates":[9.89728793563574,44.5171249034846,0]},"properties":{"CODICESER":"NG2BVT0101001","DENOMSERB":"Serbatoio di distribuzione di Ca' Barca","CODACQUED":"NG2BVT0101","ZSERBATOIO":838,"VOLUMUTILE":8,"QUOTMINESE":-999,"QUOTMAXESE":840,"FUNZIOSER":"CO","TIPSERBAT":"SI","ANNOREAL":1980,"TIPFUNZION":"CO","TELECONTR":"N","STATOSERV":"S"}},
{"type":"Feature","geometry":{"type":"Point","coordinates":[9.899239,44.5211760009431,0]},"properties":{"CODICESER":"NG2BVT0101002","DENOMSERB":"Serbatoio \"Del Laghetto\"","CODACQUED":"NG2BVT0101","ZSERBATOIO":753,"VOLUMUTILE":5,"QUOTMINESE":-999,"QUOTMAXESE":750,"FUNZIOSER":"CO","TIPSERBAT":"SI","ANNOREAL":1970,"TIPFUNZION":"CO","TELECONTR":"N","STATOSERV":"S"}},
{"type":"Feature","geometry":{"type":"Point","coordinates":[9.87392395265433,44.5294019201637,0]},"properties":{"CODICESER":"NG2BVT0126002","DENOMSERB":"Serbatoio di Roccamurata Basso","CODACQUED":"NG2BVT0126","ZSERBATOIO":373,"VOLUMUTILE":3,"QUOTMINESE":-999,"QUOTMAXESE":420,"FUNZIOSER":"CO","TIPSERBAT":"SI","ANNOREAL":1960,"TIPFUNZION":"CO","TELECONTR":"N","STATOSERV":"S"}},
{"type":"Feature","geometry":{"type":"Point","coordinates":[9.8754465092221,44.5269026849252,0]},"properties":{"CODICESER":"NG2BVT0126001","DENOMSERB":"Serbatoio di Roccamurata Alto","CODACQUED":"NG2BVT0126","ZSERBATOIO":422,"VOLUMUTILE":3,"QUOTMINESE":-999,"QUOTMAXESE":420,"FUNZIOSER":"CO","TIPSERBAT":"SI","ANNOREAL":1960,"TIPFUNZION":"CO","TELECONTR":"N","STATOSERV":"S"}},
{"type":"Feature","geometry":{"type":"Point","coordinates":[9.79015346903274,44.4468096402451,0]},"properties":{"CODICESER":"NG2BVT0121001","DENOMSERB":"Serbatoio di raccolta di Valdena","CODACQUED":"NG2BVT0121","ZSERBATOIO":780,"VOLUMUTILE":4,"QUOTMINESE":-999,"QUOTMAXESE":780,"FUNZIOSER":"CO","TIPSERBAT":"SI","ANNOREAL":1960,"TIPFUNZION":"CO","TELECONTR":"N","STATOSERV":"S"}},
{"type":"Feature","geometry":{"type":"Point","coordinates":[9.79098476388346,44.4533689430522,0]},"properties":{"CODICESER":"NG2BVT0121003","DENOMSERB":"Serbatoio di di distribuzione Valdena/Banca","CODACQUED":"NG2BVT0121","ZSERBATOIO":683,"VOLUMUTILE":3,"QUOTMINESE":-999,"QUOTMAXESE":683,"FUNZIOSER":"CO","TIPSERBAT":"SI","ANNOREAL":1970,"TIPFUNZION":"CO","TELECONTR":"N","STATOSERV":"S"}},
{"type":"Feature","geometry":{"type":"Point","coordinates":[9.78879624238233,44.4487050065066,0]},"properties":{"CODICESER":"NG2BVT0121002","DENOMSERB":"Serbatoio di di distribuzione Valdena/cimitero","CODACQUED":"NG2BVT0121","ZSERBATOIO":762,"VOLUMUTILE":25,"QUOTMINESE":-999,"QUOTMAXESE":762,"FUNZIOSER":"CO","TIPSERBAT":"SI","ANNOREAL":1980,"TIPFUNZION":"CO","TELECONTR":"N","STATOSERV":"S"}},
{"type":"Feature","geometry":{"type":"Point","coordinates":[9.86696272423325,44.5218600534942,0]},"properties":{"CODICESER":"NG2BVT0132001","DENOMSERB":"Serbatoio di distribuzione dell'Oppio 1","CODACQUED":"NG2BVT0132","ZSERBATOIO":455,"VOLUMUTILE":8,"QUOTMINESE":-999,"QUOTMAXESE":455,"FUNZIOSER":"CO","TIPSERBAT":"PE","ANNOREAL":1960,"TIPFUNZION":"CO","TELECONTR":"N","STATOSERV":"S"}},
{"type":"Feature","geometry":{"type":"Point","coordinates":[9.86946297690169,44.5199142831408,0]},"properties":{"CODICESER":"NG2BVT0132002","DENOMSERB":"Serbatoio di distribuzione dell'Oppio 2","CODACQUED":"NG2BVT0132","ZSERBATOIO":495,"VOLUMUTILE":2,"QUOTMINESE":-999,"QUOTMAXESE":495,"FUNZIOSER":"CO","TIPSERBAT":"SI","ANNOREAL":1960,"TIPFUNZION":"CO","TELECONTR":"N","STATOSERV":"S"}},
{"type":"Feature","geometry":{"type":"Point","coordinates":[9.7820055146533,44.538342486221,0]},"properties":{"CODICESER":"NG2BVT0114001","DENOMSERB":"Serbatoio del Rio dei Groppi/Lubiasa","CODACQUED":"NG2BVT0114","ZSERBATOIO":925,"VOLUMUTILE":3,"QUOTMINESE":-999,"QUOTMAXESE":925,"FUNZIOSER":"CO","TIPSERBAT":"IN","ANNOREAL":2000,"TIPFUNZION":"CO","TELECONTR":"N","STATOSERV":"S"}},
{"type":"Feature","geometry":{"type":"Point","coordinates":[9.85669974675735,44.4879604276895,0]},"properties":{"CODICESER":"NG2BVT0108002","DENOMSERB":"Serbatoio di Monte Pelato","CODACQUED":"NG2BVT0108","ZSERBATOIO":987,"VOLUMUTILE":20,"QUOTMINESE":-999,"QUOTMAXESE":987,"FUNZIOSER":"CO","TIPSERBAT":"SI","ANNOREAL":1980,"TIPFUNZION":"CO","TELECONTR":"N","STATOSERV":"S"}},
{"type":"Feature","geometry":{"type":"Point","coordinates":[9.86719106248638,44.4805412073743,0]},"properties":{"CODICESER":"NG2BVT0108001","DENOMSERB":"Bottino di raccolta della presa Fontana Rosa","CODACQUED":"NG2BVT0108","ZSERBATOIO":1185,"VOLUMUTILE":1,"QUOTMINESE":-999,"QUOTMAXESE":1185,"FUNZIOSER":"CO","TIPSERBAT":"SI","ANNOREAL":1980,"TIPFUNZION":"CO","TELECONTR":"N","STATOSERV":"S"}},
{"type":"Feature","geometry":{"type":"Point","coordinates":[9.896894,44.5033750009431,0]},"properties":{"CODICESER":"NG2BVT0130001","DENOMSERB":"Bottino di raccolta Ca Oceto","CODACQUED":"NG2BVT0130","ZSERBATOIO":962,"VOLUMUTILE":2,"QUOTMINESE":-999,"QUOTMAXESE":962,"FUNZIOSER":"CO","TIPSERBAT":"SI","ANNOREAL":-999,"TIPFUNZION":"CO","TELECONTR":"N","STATOSERV":"S"}},
{"type":"Feature","geometry":{"type":"Point","coordinates":[9.88918045277391,44.504579473025,0]},"properties":{"CODICESER":"NG2BVT0130002","DENOMSERB":"Della Pietra/ La Preda","CODACQUED":"NG2BVT0130","ZSERBATOIO":838,"VOLUMUTILE":6,"QUOTMINESE":-999,"QUOTMAXESE":838,"FUNZIOSER":"CO","TIPSERBAT":"SI","ANNOREAL":1960,"TIPFUNZION":"CO","TELECONTR":"N","STATOSERV":"S"}},
{"type":"Feature","geometry":{"type":"Point","coordinates":[9.89270844008237,44.5096361622231,0]},"properties":{"CODICESER":"NG2BVT0131001","DENOMSERB":"Serbatoio di raccolta della Combrattina","CODACQUED":"NG2BVT0131","ZSERBATOIO":843,"VOLUMUTILE":2,"QUOTMINESE":-999,"QUOTMAXESE":843,"FUNZIOSER":"CO","TIPSERBAT":"SI","ANNOREAL":1980,"TIPFUNZION":"CO","TELECONTR":"N","STATOSERV":"S"}},
{"type":"Feature","geometry":{"type":"Point","coordinates":[9.86235391598167,44.5152008102753,0]},"properties":{"CODICESER":"NG2BVT0131005","DENOMSERB":"Serbatoio di distribuzione di Case Malatesta/Caselle","CODACQUED":"NG2BVT0131","ZSERBATOIO":660,"VOLUMUTILE":3,"QUOTMINESE":-999,"QUOTMAXESE":660,"FUNZIOSER":"CO","TIPSERBAT":"SI","ANNOREAL":1980,"TIPFUNZION":"CO","TELECONTR":"N","STATOSERV":"S"}},
{"type":"Feature","geometry":{"type":"Point","coordinates":[9.86628951986808,44.5147974084357,0]},"properties":{"CODICESER":"NG2BVT0131004","DENOMSERB":"Serbatoio di distribuzione delle Chiose","CODACQUED":"NG2BVT0131","ZSERBATOIO":705,"VOLUMUTILE":15,"QUOTMINESE":-999,"QUOTMAXESE":705,"FUNZIOSER":"CO","TIPSERBAT":"SI","ANNOREAL":1980,"TIPFUNZION":"CO","TELECONTR":"N","STATOSERV":"S"}},
{"type":"Feature","geometry":{"type":"Point","coordinates":[9.86956073293707,44.5144777618154,0]},"properties":{"CODICESER":"NG2BVT0131003","DENOMSERB":"Serbatoio di distribuzione del Castello","CODACQUED":"NG2BVT0131","ZSERBATOIO":727,"VOLUMUTILE":60,"QUOTMINESE":-999,"QUOTMAXESE":727,"FUNZIOSER":"CO","TIPSERBAT":"SI","ANNOREAL":1950,"TIPFUNZION":"CO","TELECONTR":"N","STATOSERV":"S"}},
{"type":"Feature","geometry":{"type":"Point","coordinates":[9.75175937821894,44.5214114098897,0]},"properties":{"CODICESER":"NG2BVT0133001","DENOMSERB":"Serbatoio di distribuzione della Meda 1","CODACQUED":"NG2BVT0133","ZSERBATOIO":702,"VOLUMUTILE":5,"QUOTMINESE":-999,"QUOTMAXESE":702,"FUNZIOSER":"CO","TIPSERBAT":"SI","ANNOREAL":1980,"TIPFUNZION":"CO","TELECONTR":"N","STATOSERV":"S"}},
{"type":"Feature","geometry":{"type":"Point","coordinates":[9.75553211600647,44.5209392489622,0]},"properties":{"CODICESER":"NG2BVT0133002","DENOMSERB":"Serbatoio stazione pompaggio della Meda 2","CODACQUED":"NG2BVT0133","ZSERBATOIO":645,"VOLUMUTILE":5,"QUOTMINESE":-999,"QUOTMAXESE":638,"FUNZIOSER":"CO","TIPSERBAT":"SI","ANNOREAL":1980,"TIPFUNZION":"CO","TELECONTR":"N","STATOSERV":"S"}},
{"type":"Feature","geometry":{"type":"Point","coordinates":[9.75024209686771,44.5243342811643,0]},"properties":{"CODICESER":"NG2BVT0133003","DENOMSERB":"Serbatoio di raccolta presa meda","CODACQUED":"NG2BVT0133","ZSERBATOIO":733,"VOLUMUTILE":1,"QUOTMINESE":-999,"QUOTMAXESE":733,"FUNZIOSER":"CO","TIPSERBAT":"SI","ANNOREAL":2007,"TIPFUNZION":"CO","TELECONTR":"N","STATOSERV":"S"}},
{"type":"Feature","geometry":{"type":"Point","coordinates":[9.76738167424124,44.5321301732132,0]},"properties":{"CODICESER":"NG2BVT0133004","DENOMSERB":"Serbatoio di raccolta Cassini","CODACQUED":"NG2BVT0133","ZSERBATOIO":850,"VOLUMUTILE":2,"QUOTMINESE":-999,"QUOTMAXESE":850,"FUNZIOSER":"CO","TIPSERBAT":"SI","ANNOREAL":1980,"TIPFUNZION":"CO","TELECONTR":"N","STATOSERV":"S"}},
{"type":"Feature","geometry":{"type":"Point","coordinates":[9.754587770326,44.5274085964267,0]},"properties":{"CODICESER":"NG2BVT0133005","DENOMSERB":"Serbatoio di distribuzione Casembola","CODACQUED":"NG2BVT0133","ZSERBATOIO":785,"VOLUMUTILE":20,"QUOTMINESE":-999,"QUOTMAXESE":792,"FUNZIOSER":"CO","TIPSERBAT":"SI","ANNOREAL":1980,"TIPFUNZION":"CO","CODIMPSOL":"NG2BVT0133001","TELECONTR":"N","STATOSERV":"S"}},
{"type":"Feature","geometry":{"type":"Point","coordinates":[9.75467656478468,44.5300077588621,0]},"properties":{"CODICESER":"NG2BVT0133006","DENOMSERB":"Serbatoio di distribuzione di Tolara di Casembola","CODACQUED":"NG2BVT0133","ZSERBATOIO":845,"VOLUMUTILE":8,"QUOTMINESE":-999,"QUOTMAXESE":842,"FUNZIOSER":"CO","TIPSERBAT":"IN","ANNOREAL":1980,"TIPFUNZION":"CO","CODIMPSOL":"NG2BVT0133002","TELECONTR":"N","STATOSERV":"S"}},
{"type":"Feature","geometry":{"type":"Point","coordinates":[9.75139459090276,44.4129814142898,0]},"properties":{"CODICESER":"NG2BVT0138001","DENOMSERB":"Serbatoio di raccolta della Faggeta","CODACQUED":"NG2BVT0138","ZSERBATOIO":1234,"VOLUMUTILE":3,"QUOTMINESE":-999,"QUOTMAXESE":1234,"FUNZIOSER":"CO","TIPSERBAT":"SI","ANNOREAL":1950,"TIPFUNZION":"CO","TELECONTR":"N","STATOSERV":"S"}},
{"type":"Feature","geometry":{"type":"Point","coordinates":[9.75183738505146,44.4165798151356,0]},"properties":{"CODICESER":"NG2BVT0138002","DENOMSERB":"Serbatoio di raccolta dei Lavaccini di Sopra","CODACQUED":"NG2BVT0138","ZSERBATOIO":1170,"VOLUMUTILE":3,"QUOTMINESE":-999,"QUOTMAXESE":1170,"FUNZIOSER":"CO","TIPSERBAT":"SI","ANNOREAL":1950,"TIPFUNZION":"CO","TELECONTR":"N","STATOSERV":"S"}},
{"type":"Feature","geometry":{"type":"Point","coordinates":[9.75264836265985,44.4184106855953,0]},"properties":{"CODICESER":"NG2BVT0138003","DENOMSERB":"Serbatoio di raccolta dei Lavaccini","CODACQUED":"NG2BVT0138","ZSERBATOIO":1120,"VOLUMUTILE":4,"QUOTMINESE":-999,"QUOTMAXESE":1120,"FUNZIOSER":"CO","TIPSERBAT":"SI","ANNOREAL":1950,"TIPFUNZION":"CO","TELECONTR":"N","STATOSERV":"S"}},
{"type":"Feature","geometry":{"type":"Point","coordinates":[9.807580544577,44.4754194845655,0]},"properties":{"CODICESER":"NG2BVT0137001","DENOMSERB":"Serbatoio delle Bratte","CODACQUED":"NG2BVT0137","ZSERBATOIO":830,"VOLUMUTILE":5,"QUOTMINESE":-999,"QUOTMAXESE":830,"FUNZIOSER":"CO","TIPSERBAT":"SI","ANNOREAL":1918,"TIPFUNZION":"CO","TELECONTR":"N","STATOSERV":"S"}},
{"type":"Feature","geometry":{"type":"Point","coordinates":[9.82626500765551,44.4898607775355,0]},"properties":{"CODICESER":"NG2BVT0119001","DENOMSERB":"Serbatoio di Pontolo","CODACQUED":"NG2BVT0119","ZSERBATOIO":605,"VOLUMUTILE":20,"QUOTMINESE":-999,"QUOTMAXESE":605,"FUNZIOSER":"CO","TIPSERBAT":"SI","ANNOREAL":1980,"TIPFUNZION":"CO","TELECONTR":"N","STATOSERV":"S"}},
{"type":"Feature","geometry":{"type":"Point","coordinates":[9.7617388230362,44.494672179841,0]},"properties":{"CODICESER":"NG2BVT0100007","DENOMSERB":"Serbatoio di distribuzione delle Vignole","CODACQUED":"NG2BVT0100","ZSERBATOIO":475,"VOLUMUTILE":4,"QUOTMINESE":-999,"QUOTMAXESE":475,"FUNZIOSER":"CO","TIPSERBAT":"SI","ANNOREAL":1960,"TIPFUNZION":"CO","TELECONTR":"N","STATOSERV":"S"}},
{"type":"Feature","geometry":{"type":"Point","coordinates":[9.82896120803832,44.4737720046998,0]},"properties":{"CODICESER":"NG2BVT0137002","DENOMSERB":"Nuovo Bottino Potacchio","CODACQUED":"NG2BVT0137","ZSERBATOIO":1003,"VOLUMUTILE":4,"QUOTMINESE":-999,"QUOTMAXESE":1003,"FUNZIOSER":"CO","TIPSERBAT":"SI","ANNOREAL":1950,"TIPFUNZION":"CO","TELECONTR":"N","STATOSERV":"S"}},
{"type":"Feature","geometry":{"type":"Point","coordinates":[9.81659565544635,44.4755230394021,0]},"properties":{"CODICESER":"NG2BVT0123001","DENOMSERB":"Serbatoio di distribuzione dei Vighini","CODACQUED":"NG2BVT0123","ZSERBATOIO":911,"VOLUMUTILE":8,"QUOTMINESE":-999,"QUOTMAXESE":911,"FUNZIOSER":"CO","TIPSERBAT":"SI","ANNOREAL":1950,"TIPFUNZION":"CO","TELECONTR":"N","STATOSERV":"S"}},
{"type":"Feature","geometry":{"type":"Point","coordinates":[9.78994675222367,44.5394918358774,0]},"properties":{"CODICESER":"NG2BVT0113001","DENOMSERB":"Verbona - Caffaraccia","CODACQUED":"NG2BVT0113","ZSERBATOIO":913,"VOLUMUTILE":2,"QUOTMINESE":-999,"QUOTMAXESE":913,"FUNZIOSER":"CO","TIPSERBAT":"SI","ANNOREAL":1980,"TIPFUNZION":"CO","TELECONTR":"N","STATOSERV":"S"}},
{"type":"Feature","geometry":{"type":"Point","coordinates":[9.79479755957365,44.5280729455342,0]},"properties":{"CODICESER":"NG2BVT0113003","DENOMSERB":"Isola - Coriago","CODACQUED":"NG2BVT0113","ZSERBATOIO":740,"VOLUMUTILE":5,"QUOTMINESE":-999,"QUOTMAXESE":740,"FUNZIOSER":"CO","TIPSERBAT":"SI","ANNOREAL":1950,"TIPFUNZION":"CO","TELECONTR":"N","STATOSERV":"S"}},
{"type":"Feature","geometry":{"type":"Point","coordinates":[9.80934292377131,44.545838190053,0]},"properties":{"CODICESER":"NG2BVT0111001","DENOMSERB":"Serbatoio di raccolta Tre Fontane","CODACQUED":"NG2BVT0111","ZSERBATOIO":1032,"VOLUMUTILE":8,"QUOTMINESE":-999,"QUOTMAXESE":1032,"FUNZIOSER":"CO","TIPSERBAT":"SI","ANNOREAL":1960,"TIPFUNZION":"CO","TELECONTR":"N","STATOSERV":"S"}},
{"type":"Feature","geometry":{"type":"Point","coordinates":[9.80401935615889,44.5522817264184,0]},"properties":{"CODICESER":"NG2BVT0111002","DENOMSERB":"Serbatoio di raccolta Co' di Vona","CODACQUED":"NG2BVT0111","ZSERBATOIO":1030,"VOLUMUTILE":3,"QUOTMINESE":-999,"QUOTMAXESE":1030,"FUNZIOSER":"CO","TIPSERBAT":"SI","ANNOREAL":1960,"TIPFUNZION":"CO","TELECONTR":"N","STATOSERV":"S"}},
{"type":"Feature","geometry":{"type":"Point","coordinates":[9.79312291100337,44.5321044546166,0]},"properties":{"CODICESER":"NG2BVT0113002","DENOMSERB":"Stefanini - Caffaraccia","CODACQUED":"NG2BVT0113","ZSERBATOIO":867,"VOLUMUTILE":25,"QUOTMINESE":-999,"QUOTMAXESE":867,"FUNZIOSER":"CO","TIPSERBAT":"SI","ANNOREAL":1980,"TIPFUNZION":"CO","TELECONTR":"N","STATOSERV":"S"}},
{"type":"Feature","geometry":{"type":"Point","coordinates":[9.70656870585552,44.552240480413,0]},"properties":{"CODICESER":"NG2BVT0104001","DENOMSERB":"Bottino di raccolta","CODACQUED":"NG2BVT0104","ZSERBATOIO":990,"VOLUMUTILE":2,"QUOTMINESE":-999,"QUOTMAXESE":990,"FUNZIOSER":"CO","TIPSERBAT":"SI","ANNOREAL":1980,"TIPFUNZION":"CO","TELECONTR":"N","STATOSERV":"S"}},
{"type":"Feature","geometry":{"type":"Point","coordinates":[9.70738189880676,44.5512304009892,0]},"properties":{"CODICESER":"NG2BVT0104002","DENOMSERB":"Serbatoio rompitratta","CODACQUED":"NG2BVT0104","ZSERBATOIO":950,"VOLUMUTILE":2,"QUOTMINESE":-999,"QUOTMAXESE":950,"FUNZIOSER":"CO","TIPSERBAT":"SI","ANNOREAL":1980,"TIPFUNZION":"CO","TELECONTR":"N","STATOSERV":"S"}},
{"type":"Feature","geometry":{"type":"Point","coordinates":[9.72891588807563,44.5361078516496,0]},"properties":{"CODICESER":"NG2BVT0104005","DENOMSERB":"Serbatoio di distribuzione degli Scaglioni","CODACQUED":"NG2BVT0104","ZSERBATOIO":804,"VOLUMUTILE":1,"QUOTMINESE":-999,"QUOTMAXESE":804,"FUNZIOSER":"CO","TIPSERBAT":"SI","ANNOREAL":1960,"TIPFUNZION":"CO","TELECONTR":"N","STATOSERV":"S"}},
{"type":"Feature","geometry":{"type":"Point","coordinates":[9.7216475767509,44.5388159156652,0]},"properties":{"CODICESER":"NG2BVT0104006","DENOMSERB":"Serbatoio di distribuzione della Costa","CODACQUED":"NG2BVT0104","ZSERBATOIO":857,"VOLUMUTILE":25,"QUOTMINESE":-999,"QUOTMAXESE":857,"FUNZIOSER":"CO","TIPSERBAT":"SI","ANNOREAL":2000,"TIPFUNZION":"CO","TELECONTR":"N","STATOSERV":"S"}},
{"type":"Feature","geometry":{"type":"Point","coordinates":[9.84036019984262,44.5427474242321,0]},"properties":{"CODICESER":"NG2BVT0127001","DENOMSERB":"Serbatoio di clorazione e distribuzione di Testanello","CODACQUED":"NG2BVT0127","ZSERBATOIO":625,"VOLUMUTILE":10,"QUOTMINESE":-999,"QUOTMAXESE":625,"FUNZIOSER":"CO","TIPSERBAT":"SI","ANNOREAL":1920,"TIPFUNZION":"CO","TELECONTR":"N","STATOSERV":"S"}},
{"type":"Feature","geometry":{"type":"Point","coordinates":[9.74847402499228,44.5362320439892,0]},"properties":{"CODICESER":"NG2BVT0103001","DENOMSERB":"Serbatoio Prese dei Salici","CODACQUED":"NG2BVT0103","ZSERBATOIO":875,"VOLUMUTILE":2,"QUOTMINESE":-999,"QUOTMAXESE":875,"FUNZIOSER":"CO","TIPSERBAT":"SI","ANNOREAL":1980,"TIPFUNZION":"CO","TELECONTR":"N","STATOSERV":"S"}},
{"type":"Feature","geometry":{"type":"Point","coordinates":[9.74495385545905,44.5339077172441,0]},"properties":{"CODICESER":"NG2BVT0103002","DENOMSERB":"Serbatoio Il Poggiolo","CODACQUED":"NG2BVT0103","ZSERBATOIO":850,"VOLUMUTILE":20,"QUOTMINESE":-999,"QUOTMAXESE":850,"FUNZIOSER":"CO","TIPSERBAT":"SI","ANNOREAL":1980,"TIPFUNZION":"CO","TELECONTR":"N","STATOSERV":"S"}},
{"type":"Feature","geometry":{"type":"Point","coordinates":[9.72664039597772,44.5171425366804,0]},"properties":{"CODICESER":"NG2BVT0103004","DENOMSERB":"Serbatoio C.se Ghirardi","CODACQUED":"NG2BVT0103","ZSERBATOIO":678,"VOLUMUTILE":10,"QUOTMINESE":-999,"QUOTMAXESE":678,"FUNZIOSER":"CO","TIPSERBAT":"SI","ANNOREAL":-999,"TIPFUNZION":"CO","TELECONTR":"N","STATOSERV":"S"}},
{"type":"Feature","geometry":{"type":"Point","coordinates":[9.74472267457344,44.5337311904101,0]},"properties":{"CODICESER":"NG2BVT0103003","DENOMSERB":"Serbatoio Il Poggiolo 2","CODACQUED":"NG2BVT0103","ZSERBATOIO":850,"VOLUMUTILE":20,"QUOTMINESE":-999,"QUOTMAXESE":850,"FUNZIOSER":"CO","TIPSERBAT":"SI","ANNOREAL":1980,"TIPFUNZION":"CO","TELECONTR":"N","STATOSERV":"S"}},
{"type":"Feature","geometry":{"type":"Point","coordinates":[9.83197546453276,44.5417165393,0]},"properties":{"CODICESER":"NG2BVT0128003","DENOMSERB":"Serbatoio di distribuzione del Groppo","CODACQUED":"NG2BVT0128","ZSERBATOIO":885,"VOLUMUTILE":50,"QUOTMINESE":-999,"QUOTMAXESE":885,"FUNZIOSER":"CO","TIPSERBAT":"SI","ANNOREAL":1960,"TIPFUNZION":"CO","TELECONTR":"N","STATOSERV":"S"}},
{"type":"Feature","geometry":{"type":"Point","coordinates":[9.83897738637451,44.532774725044,0]},"properties":{"CODICESER":"NG2BVT0128004","DENOMSERB":"Serbatoio di distribuzione di Barca","CODACQUED":"NG2BVT0128","ZSERBATOIO":657,"VOLUMUTILE":8,"QUOTMINESE":-999,"QUOTMAXESE":657,"FUNZIOSER":"CO","TIPSERBAT":"SI","ANNOREAL":1980,"TIPFUNZION":"CO","TELECONTR":"N","STATOSERV":"S"}},
{"type":"Feature","geometry":{"type":"Point","coordinates":[9.82313785503384,44.5285309808021,0]},"properties":{"CODICESER":"NG2BVT0128001","DENOMSERB":"Serbatoio di distribuzione della \"Colla\"","CODACQUED":"NG2BVT0128","ZSERBATOIO":723,"VOLUMUTILE":8,"QUOTMINESE":-999,"QUOTMAXESE":723,"FUNZIOSER":"CO","TIPSERBAT":"SI","ANNOREAL":1960,"TIPFUNZION":"CO","TELECONTR":"N","STATOSERV":"S"}},
{"type":"Feature","geometry":{"type":"Point","coordinates":[9.8272907116333,44.5199872066128,0]},"properties":{"CODICESER":"NG2BVT0128002","DENOMSERB":"Serbatoio di distribuzione della \"Pistina\"","CODACQUED":"NG2BVT0128","ZSERBATOIO":541,"VOLUMUTILE":8,"QUOTMINESE":-999,"QUOTMAXESE":541,"FUNZIOSER":"CO","TIPSERBAT":"SI","ANNOREAL":1960,"TIPFUNZION":"CO","TELECONTR":"N","STATOSERV":"S"}},
{"type":"Feature","geometry":{"type":"Point","coordinates":[9.82341132934607,44.5467089278352,0]},"properties":{"CODICESER":"NG2BVT0128005","DENOMSERB":"Bottino di raccolta di Pian del Monte","CODACQUED":"NG2BVT0128","ZSERBATOIO":910,"VOLUMUTILE":4,"QUOTMINESE":-999,"QUOTMAXESE":910,"FUNZIOSER":"CO","TIPSERBAT":"SI","ANNOREAL":1980,"TIPFUNZION":"CO","TELECONTR":"N","STATOSERV":"S"}},
{"type":"Feature","geometry":{"type":"Point","coordinates":[9.76923990683238,44.5181220071793,0]},"properties":{"CODICESER":"NG2BVT0118001","DENOMSERB":"Bottino di raccolta presa del Lago e della Bratta","CODACQUED":"NG2BVT0118","ZSERBATOIO":758,"VOLUMUTILE":4,"QUOTMINESE":-999,"QUOTMAXESE":-999,"FUNZIOSER":"CO","TIPSERBAT":"SI","ANNOREAL":1980,"TIPFUNZION":"CO","TELECONTR":"N","STATOSERV":"S"}},
{"type":"Feature","geometry":{"type":"Point","coordinates":[9.76236110730832,44.515458009522,0]},"properties":{"CODICESER":"NG2BVT0118002","DENOMSERB":"Serbatoio di distribuzione di Marzocco","CODACQUED":"NG2BVT0118","ZSERBATOIO":682,"VOLUMUTILE":15,"QUOTMINESE":-999,"QUOTMAXESE":-999,"FUNZIOSER":"CO","TIPSERBAT":"SI","ANNOREAL":1940,"TIPFUNZION":"CO","TELECONTR":"N","STATOSERV":"S"}},
{"type":"Feature","geometry":{"type":"Point","coordinates":[9.84855129809239,44.5180867216348,0]},"properties":{"CODICESER":"NG2BVT0107001","DENOMSERB":"Serbatoio dei Fusinelli","CODACQUED":"NG2BVT0107","ZSERBATOIO":425,"VOLUMUTILE":30,"QUOTMINESE":-999,"QUOTMAXESE":-999,"FUNZIOSER":"CO","TIPSERBAT":"SI","ANNOREAL":-999,"TIPFUNZION":"CO","TELECONTR":"N","STATOSERV":"S"}},
{"type":"Feature","geometry":{"type":"Point","coordinates":[9.84868555464235,44.5115199420964,0]},"properties":{"CODICESER":"NG2BVT0107002","DENOMSERB":"Serbatoio Pian delle Stelle","CODACQUED":"NG2BVT0107","ZSERBATOIO":465,"VOLUMUTILE":25,"QUOTMINESE":-999,"QUOTMAXESE":-999,"FUNZIOSER":"CO","TIPSERBAT":"SI","ANNOREAL":1980,"TIPFUNZION":"CO","TELECONTR":"N","STATOSERV":"S"}},
{"type":"Feature","geometry":{"type":"Point","coordinates":[9.85512323805955,44.5074553641283,0]},"properties":{"CODICESER":"NG2BVT0107004","DENOMSERB":"Serbatoio Costerbosa","CODACQUED":"NG2BVT0107","ZSERBATOIO":614,"VOLUMUTILE":20,"QUOTMINESE":-999,"QUOTMAXESE":-999,"FUNZIOSER":"CO","TIPSERBAT":"SI","ANNOREAL":1980,"TIPFUNZION":"CO","TELECONTR":"N","STATOSERV":"S"}},
{"type":"Feature","geometry":{"type":"Point","coordinates":[9.85429293194667,44.5037721870054,0]},"properties":{"CODICESER":"NG2BVT0107006","DENOMSERB":"Serbatoio Costa Rossasco","CODACQUED":"NG2BVT0107","ZSERBATOIO":659,"VOLUMUTILE":15,"QUOTMINESE":-999,"QUOTMAXESE":-999,"FUNZIOSER":"CO","TIPSERBAT":"SI","ANNOREAL":1980,"TIPFUNZION":"CO","TELECONTR":"N","STATOSERV":"S"}},
{"type":"Feature","geometry":{"type":"Point","coordinates":[9.84556796028822,44.5007518229746,0]},"properties":{"CODICESER":"NG2BVT0106001","DENOMSERB":"Serbatoio di Cà di Piva","CODACQUED":"NG2BVT0106","ZSERBATOIO":618,"VOLUMUTILE":35,"QUOTMINESE":-999,"QUOTMAXESE":-999,"FUNZIOSER":"CO","TIPSERBAT":"SI","ANNOREAL":1980,"TIPFUNZION":"CO","TELECONTR":"N","STATOSERV":"S"}},
{"type":"Feature","geometry":{"type":"Point","coordinates":[9.85218573092159,44.4985377534694,0]},"properties":{"CODICESER":"NG2BVT0107003","DENOMSERB":"Serbatoio del Poggioli","CODACQUED":"NG2BVT0107","ZSERBATOIO":750,"VOLUMUTILE":25,"QUOTMINESE":-999,"QUOTMAXESE":-999,"FUNZIOSER":"CO","TIPSERBAT":"SI","ANNOREAL":1980,"TIPFUNZION":"CO","TELECONTR":"N","STATOSERV":"S"}},
{"type":"Feature","geometry":{"type":"Point","coordinates":[9.86637365275398,44.4854049583553,0]},"properties":{"CODICESER":"NG2BVT0107005","DENOMSERB":"Serbatoio di raccolta di Pian degli Alberi","CODACQUED":"NG2BVT0107","ZSERBATOIO":1040,"VOLUMUTILE":4,"QUOTMINESE":-999,"QUOTMAXESE":-999,"FUNZIOSER":"CO","TIPSERBAT":"SI","ANNOREAL":1980,"TIPFUNZION":"CO","TELECONTR":"N","STATOSERV":"S"}},
{"type":"Feature","geometry":{"type":"Point","coordinates":[9.83523374359131,44.4884195107708,0]},"properties":{"CODICESER":"NG2BVT0106004","DENOMSERB":"Casello raccolta di Pian dei Nespoli","CODACQUED":"NG2BVT0106","ZSERBATOIO":717,"VOLUMUTILE":5,"QUOTMINESE":-999,"QUOTMAXESE":-999,"FUNZIOSER":"CO","TIPSERBAT":"SI","ANNOREAL":1985,"TIPFUNZION":"CO","TELECONTR":"N","STATOSERV":"S"}},
{"type":"Feature","geometry":{"type":"Point","coordinates":[9.77757163620219,44.4572824927324,0]},"properties":{"CODICESER":"NG2BVT0110002","DENOMSERB":"Serbatoio di distribuzione di Casa del Fieno","CODACQUED":"NG2BVT0110","ZSERBATOIO":736,"VOLUMUTILE":10,"QUOTMINESE":-999,"QUOTMAXESE":736,"FUNZIOSER":"CO","TIPSERBAT":"SI","ANNOREAL":1950,"TIPFUNZION":"CO","TELECONTR":"N","STATOSERV":"S"}},
{"type":"Feature","geometry":{"type":"Point","coordinates":[9.77191111503662,44.4598555667275,0]},"properties":{"CODICESER":"NG2BVT0110003","DENOMSERB":"Serbatoio di distribuzione Rovinaglia \"Basso\"","CODACQUED":"NG2BVT0110","ZSERBATOIO":787,"VOLUMUTILE":6,"QUOTMINESE":-999,"QUOTMAXESE":787,"FUNZIOSER":"CO","TIPSERBAT":"SI","ANNOREAL":1950,"TIPFUNZION":"CO","TELECONTR":"N","STATOSERV":"S"}},
{"type":"Feature","geometry":{"type":"Point","coordinates":[9.7680998264374,44.4528867086781,0]},"properties":{"CODICESER":"NG2BVT0110005","DENOMSERB":"Serbatoio di clorazione e distribuzione Rovinaglia \"Cimitero\"","CODACQUED":"NG2BVT0110","ZSERBATOIO":850,"VOLUMUTILE":30,"QUOTMINESE":-999,"QUOTMAXESE":850,"FUNZIOSER":"CO","TIPSERBAT":"SI","ANNOREAL":1980,"TIPFUNZION":"CO","TELECONTR":"N","STATOSERV":"S"}},
{"type":"Feature","geometry":{"type":"Point","coordinates":[9.7638540345238,44.4369567610337,0]},"properties":{"CODICESER":"NG2BVT0110006","DENOMSERB":"Bottino di raccolta del \"Gemello\"","CODACQUED":"NG2BVT0110","ZSERBATOIO":922,"VOLUMUTILE":2,"QUOTMINESE":-999,"QUOTMAXESE":922,"FUNZIOSER":"CO","TIPSERBAT":"SI","ANNOREAL":1980,"TIPFUNZION":"CO","TELECONTR":"N","STATOSERV":"S"}},
{"type":"Feature","geometry":{"type":"Point","coordinates":[9.76272,44.4450600009431,0]},"properties":{"CODICESER":"NG2BVT0110007","DENOMSERB":"Serbatoio di Fontanellato","CODACQUED":"NG2BVT0110","ZSERBATOIO":850,"VOLUMUTILE":3,"QUOTMINESE":-999,"QUOTMAXESE":850,"FUNZIOSER":"CO","TIPSERBAT":"SI","ANNOREAL":1980,"TIPFUNZION":"CO","TELECONTR":"N","STATOSERV":"S"}},
{"type":"Feature","geometry":{"type":"Point","coordinates":[9.8047499043584,44.4910046019108,0]},"properties":{"CODICESER":"NG2BVT0125001","DENOMSERB":"Serbatoio di Calcinare2","CODACQUED":"NG2BVT0125","ZSERBATOIO":512,"VOLUMUTILE":15,"QUOTMINESE":-999,"QUOTMAXESE":512,"FUNZIOSER":"CO","TIPSERBAT":"SI","ANNOREAL":1980,"TIPFUNZION":"CO","TELECONTR":"N","STATOSERV":"S"}},
{"type":"Feature","geometry":{"type":"Point","coordinates":[9.80815680256774,44.4783143543782,0]},"properties":{"CODICESER":"NG2BVT0125002","DENOMSERB":"Serbatoio di Calcinare1","CODACQUED":"NG2BVT0125","ZSERBATOIO":762,"VOLUMUTILE":4,"QUOTMINESE":-999,"QUOTMAXESE":762,"FUNZIOSER":"CO","TIPSERBAT":"SI","ANNOREAL":1980,"TIPFUNZION":"CO","TELECONTR":"N","STATOSERV":"S"}},
{"type":"Feature","geometry":{"type":"Point","coordinates":[9.76541947916545,44.5185680728007,0]},"properties":{"CODICESER":"NG2BVT0117002","DENOMSERB":"Serbatoio di raccolta di Ca' Bruna","CODACQUED":"NG2BVT0117","ZSERBATOIO":686,"VOLUMUTILE":1,"QUOTMINESE":-999,"QUOTMAXESE":686,"FUNZIOSER":"CO","TIPSERBAT":"SI","ANNOREAL":1980,"TIPFUNZION":"CO","TELECONTR":"N","STATOSERV":"S"}},
{"type":"Feature","geometry":{"type":"Point","coordinates":[9.76078190913894,44.5124206986661,0]},"properties":{"CODICESER":"NG2BVT0117001","DENOMSERB":"Serbatoio di distribuzione della Colombaia","CODACQUED":"NG2BVT0117","ZSERBATOIO":612,"VOLUMUTILE":20,"QUOTMINESE":-999,"QUOTMAXESE":612,"FUNZIOSER":"CO","TIPSERBAT":"SI","ANNOREAL":1980,"TIPFUNZION":"CO","TELECONTR":"N","STATOSERV":"S"}},
{"type":"Feature","geometry":{"type":"Point","coordinates":[9.83719465135807,44.4937536515966,0]},"properties":{"CODICESER":"NG2BVT0109001","DENOMSERB":"Serbatoio di Agnidano","CODACQUED":"NG2BVT0109","ZSERBATOIO":640,"VOLUMUTILE":10,"QUOTMINESE":-999,"QUOTMAXESE":640,"FUNZIOSER":"CO","TIPSERBAT":"SI","ANNOREAL":1980,"TIPFUNZION":"CO","TELECONTR":"N","STATOSERV":"S"}},
{"type":"Feature","geometry":{"type":"Point","coordinates":[9.66371653804271,44.4987084161022,0]},"properties":{"CODICESER":"NG2COM0300001","DENOMSERB":"Casello","CODACQUED":"NG2COM0300","ZSERBATOIO":-999,"VOLUMUTILE":30,"QUOTMINESE":-999,"QUOTMAXESE":-999,"FUNZIOSER":"CO","TIPSERBAT":"SI","ANNOREAL":1910,"TIPFUNZION":"CO","TELECONTR":"N","STATOSERV":"S"}},
{"type":"Feature","geometry":{"type":"Point","coordinates":[9.66160805413301,44.5139598569067,0]},"properties":{"CODICESER":"NG2COM0308001","DENOMSERB":"Piana del Lavezzo","CODACQUED":"NG2COM0308","ZSERBATOIO":645,"VOLUMUTILE":4,"QUOTMINESE":-999,"QUOTMAXESE":-999,"FUNZIOSER":"CO","TIPSERBAT":"SI","ANNOREAL":1950,"TIPFUNZION":"CO","TELECONTR":"N","STATOSERV":"S"}},
{"type":"Feature","geometry":{"type":"Point","coordinates":[9.67629626774185,44.5738782592455,0]},"properties":{"CODICESER":"NG2COM0302001","DENOMSERB":"Cereseto","CODACQUED":"NG2COM0302","ZSERBATOIO":784,"VOLUMUTILE":10,"QUOTMINESE":-999,"QUOTMAXESE":-999,"FUNZIOSER":"CO","TIPSERBAT":"SI","ANNOREAL":1950,"TIPFUNZION":"CO","TELECONTR":"N","STATOSERV":"S"}},
{"type":"Feature","geometry":{"type":"Point","coordinates":[9.667306550977,44.5591117758212,0]},"properties":{"CODICESER":"NG2COM0303001","DENOMSERB":"Terra dei Zoppi basso","CODACQUED":"NG2COM0303","ZSERBATOIO":969,"VOLUMUTILE":2,"QUOTMINESE":-999,"QUOTMAXESE":-999,"FUNZIOSER":"CO","TIPSERBAT":"SI","ANNOREAL":1960,"TIPFUNZION":"CO","TELECONTR":"N","STATOSERV":"S"}},
{"type":"Feature","geometry":{"type":"Point","coordinates":[9.66745200190222,44.558012977535,0]},"properties":{"CODICESER":"NG2COM0303002","DENOMSERB":"Terra dei Zoppi","CODACQUED":"NG2COM0303","ZSERBATOIO":981,"VOLUMUTILE":1,"QUOTMINESE":-999,"QUOTMAXESE":-999,"FUNZIOSER":"CO","TIPSERBAT":"SI","ANNOREAL":1960,"TIPFUNZION":"CO","TELECONTR":"N","STATOSERV":"S"}},
{"type":"Feature","geometry":{"type":"Point","coordinates":[9.67358719411398,44.5772880467426,0]},"properties":{"CODICESER":"NG2COM0301001","DENOMSERB":"Case Conti II","CODACQUED":"NG2COM0301","ZSERBATOIO":832,"VOLUMUTILE":2,"QUOTMINESE":-999,"QUOTMAXESE":-999,"FUNZIOSER":"CO","TIPSERBAT":"SI","ANNOREAL":-999,"TIPFUNZION":"CO","TELECONTR":"N","STATOSERV":"S"}},
{"type":"Feature","geometry":{"type":"Point","coordinates":[9.67420281034233,44.5762801649387,0]},"properties":{"CODICESER":"NG2COM0301002","DENOMSERB":"Case Conti III","CODACQUED":"NG2COM0301","ZSERBATOIO":813,"VOLUMUTILE":4,"QUOTMINESE":-999,"QUOTMAXESE":-999,"FUNZIOSER":"CO","TIPSERBAT":"SI","ANNOREAL":1970,"TIPFUNZION":"CO","TELECONTR":"N","STATOSERV":"S"}},
{"type":"Feature","geometry":{"type":"Point","coordinates":[9.682703,44.5836890009431,0]},"properties":{"CODICESER":"NG2COM0312001","DENOMSERB":"Trario 1","CODACQUED":"NG2COM0312","ZSERBATOIO":783,"VOLUMUTILE":6,"QUOTMINESE":-999,"QUOTMAXESE":-999,"FUNZIOSER":"CO","TIPSERBAT":"SI","ANNOREAL":1950,"TIPFUNZION":"CO","TELECONTR":"N","STATOSERV":"S"}},
{"type":"Feature","geometry":{"type":"Point","coordinates":[9.68176404989021,44.5826471650873,0]},"properties":{"CODICESER":"NG2COM0312002","DENOMSERB":"Trario 2","CODACQUED":"NG2COM0312","ZSERBATOIO":794,"VOLUMUTILE":1,"QUOTMINESE":-999,"QUOTMAXESE":-999,"FUNZIOSER":"CO","TIPSERBAT":"SI","ANNOREAL":1950,"TIPFUNZION":"CO","TELECONTR":"N","STATOSERV":"S"}},
{"type":"Feature","geometry":{"type":"Point","coordinates":[9.67094,44.5818040009432,0]},"properties":{"CODICESER":"NG2COM0301003","DENOMSERB":"Case Conti I","CODACQUED":"NG2COM0301","ZSERBATOIO":878,"VOLUMUTILE":2,"QUOTMINESE":-999,"QUOTMAXESE":-999,"FUNZIOSER":"CO","TIPSERBAT":"SI","ANNOREAL":1980,"TIPFUNZION":"CO","TELECONTR":"N","STATOSERV":"S"}},
{"type":"Feature","geometry":{"type":"Point","coordinates":[9.67349601265286,44.5724284039742,0]},"properties":{"CODICESER":"NG2COM0302002","DENOMSERB":"Cereseto Alto","CODACQUED":"NG2COM0302","ZSERBATOIO":853,"VOLUMUTILE":1,"QUOTMINESE":-999,"QUOTMAXESE":-999,"FUNZIOSER":"CO","TIPSERBAT":"SI","ANNOREAL":1950,"TIPFUNZION":"CO","TELECONTR":"N","STATOSERV":"S"}},
{"type":"Feature","geometry":{"type":"Point","coordinates":[9.68966568518593,44.5428887561795,0]},"properties":{"CODICESER":"NG2COM0309001","DENOMSERB":"Fuià","CODACQUED":"NG2COM0309","ZSERBATOIO":892,"VOLUMUTILE":2,"QUOTMINESE":-999,"QUOTMAXESE":-999,"FUNZIOSER":"CO","TIPSERBAT":"SI","ANNOREAL":1960,"TIPFUNZION":"CO","TELECONTR":"N","STATOSERV":"S"}},
{"type":"Feature","geometry":{"type":"Point","coordinates":[9.68748852395067,44.5399396112903,0]},"properties":{"CODICESER":"NG2COM0310001","DENOMSERB":"Groppo di Caboara","CODACQUED":"NG2COM0310","ZSERBATOIO":802,"VOLUMUTILE":2,"QUOTMINESE":-999,"QUOTMAXESE":-999,"FUNZIOSER":"CO","TIPSERBAT":"SI","ANNOREAL":1960,"TIPFUNZION":"CO","TELECONTR":"N","STATOSERV":"S"}},
{"type":"Feature","geometry":{"type":"Point","coordinates":[9.68687285699085,44.5222307098079,0]},"properties":{"CODICESER":"NG2COM0313001","DENOMSERB":"Strela","CODACQUED":"NG2COM0313","ZSERBATOIO":717,"VOLUMUTILE":30,"QUOTMINESE":-999,"QUOTMAXESE":-999,"FUNZIOSER":"CO","TIPSERBAT":"SI","ANNOREAL":1930,"TIPFUNZION":"CO","TELECONTR":"N","STATOSERV":"S"}},
{"type":"Feature","geometry":{"type":"Point","coordinates":[9.699952,44.5425180009431,0]},"properties":{"CODICESER":"NG2COM0311001","DENOMSERB":"Arola","CODACQUED":"NG2COM0311","ZSERBATOIO":788,"VOLUMUTILE":2,"QUOTMINESE":-999,"QUOTMAXESE":-999,"FUNZIOSER":"CO","TIPSERBAT":"SI","ANNOREAL":1969,"TIPFUNZION":"CO","TELECONTR":"N","STATOSERV":"S"}},
{"type":"Feature","geometry":{"type":"Point","coordinates":[9.670279,44.5414670009431,0]},"properties":{"CODICESER":"NG2COM0300012","DENOMSERB":"Barbuia","CODACQUED":"NG2COM0300","ZSERBATOIO":1025,"VOLUMUTILE":4,"QUOTMINESE":-999,"QUOTMAXESE":-999,"FUNZIOSER":"CO","TIPSERBAT":"SI","ANNOREAL":1955,"TIPFUNZION":"CO","TELECONTR":"N","STATOSERV":"S"}},
{"type":"Feature","geometry":{"type":"Point","coordinates":[9.67544118403956,44.5307098334608,0]},"properties":{"CODICESER":"NG2COM0300002","DENOMSERB":"Sambuceto alto","CODACQUED":"NG2COM0300","ZSERBATOIO":868,"VOLUMUTILE":10,"QUOTMINESE":-999,"QUOTMAXESE":-999,"FUNZIOSER":"CO","TIPSERBAT":"SI","ANNOREAL":1955,"TIPFUNZION":"CO","TELECONTR":"N","STATOSERV":"S"}},
{"type":"Feature","geometry":{"type":"Point","coordinates":[9.67244609635084,44.5441959919332,0]},"properties":{"CODICESER":"NG2COM0300013","DENOMSERB":"Pelpi nuova","CODACQUED":"NG2COM0300","ZSERBATOIO":1016,"VOLUMUTILE":1,"QUOTMINESE":-999,"QUOTMAXESE":-999,"FUNZIOSER":"CO","TIPSERBAT":"SI","ANNOREAL":1985,"TIPFUNZION":"CO","TELECONTR":"N","STATOSERV":"S"}},
{"type":"Feature","geometry":{"type":"Point","coordinates":[9.66884333840849,44.5171425052151,0]},"properties":{"CODICESER":"NG2COM0300003","DENOMSERB":"Castagnadello","CODACQUED":"NG2COM0300","ZSERBATOIO":668,"VOLUMUTILE":15,"QUOTMINESE":-999,"QUOTMAXESE":-999,"FUNZIOSER":"CO","TIPSERBAT":"SI","ANNOREAL":1955,"TIPFUNZION":"CO","TELECONTR":"N","STATOSERV":"S"}},
{"type":"Feature","geometry":{"type":"Point","coordinates":[9.68509097553987,44.5288773092546,0]},"properties":{"CODICESER":"NG2COM0313002","DENOMSERB":"Serbatoio del Faggio","CODACQUED":"NG2COM0313","ZSERBATOIO":818,"VOLUMUTILE":3,"QUOTMINESE":-999,"QUOTMAXESE":-999,"FUNZIOSER":"CO","TIPSERBAT":"SI","ANNOREAL":1990,"TIPFUNZION":"CO","TELECONTR":"N","STATOSERV":"S"}},
{"type":"Feature","geometry":{"type":"Point","coordinates":[9.66055,44.5282420009431,0]},"properties":{"CODICESER":"NG2COM0308002","DENOMSERB":"Burroni","CODACQUED":"NG2COM0308","ZSERBATOIO":830,"VOLUMUTILE":1,"QUOTMINESE":-999,"QUOTMAXESE":-999,"FUNZIOSER":"CO","TIPSERBAT":"SI","ANNOREAL":1980,"TIPFUNZION":"CO","TELECONTR":"N","STATOSERV":"S"}},
{"type":"Feature","geometry":{"type":"Point","coordinates":[9.69516133323904,44.5060975683432,0]},"properties":{"CODICESER":"NG2COM0313003","DENOMSERB":"Ronco Desideri","CODACQUED":"NG2COM0313","ZSERBATOIO":598,"VOLUMUTILE":10,"QUOTMINESE":-999,"QUOTMAXESE":-999,"FUNZIOSER":"CO","TIPSERBAT":"SI","ANNOREAL":1980,"TIPFUNZION":"CO","TELECONTR":"N","STATOSERV":"S"}},
{"type":"Feature","geometry":{"type":"Point","coordinates":[9.69241640908595,44.4927396610274,0]},"properties":{"CODICESER":"NG2COM0313004","DENOMSERB":"Breia","CODACQUED":"NG2COM0313","ZSERBATOIO":624,"VOLUMUTILE":16,"QUOTMINESE":-999,"QUOTMAXESE":-999,"FUNZIOSER":"CO","TIPSERBAT":"SI","ANNOREAL":1980,"TIPFUNZION":"CO","TELECONTR":"N","STATOSERV":"S"}},
{"type":"Feature","geometry":{"type":"Point","coordinates":[9.66968852008548,44.5145532448787,0]},"properties":{"CODICESER":"NG2COM0300005","DENOMSERB":"La Costa","CODACQUED":"NG2COM0300","ZSERBATOIO":633,"VOLUMUTILE":40,"QUOTMINESE":-999,"QUOTMAXESE":-999,"FUNZIOSER":"CO","TIPSERBAT":"SI","ANNOREAL":1980,"TIPFUNZION":"CO","TELECONTR":"N","STATOSERV":"S"}},
{"type":"Feature","geometry":{"type":"Point","coordinates":[9.66308610274967,44.4972129975548,0]},"properties":{"CODICESER":"NG2COM0300006","DENOMSERB":"Compiano Capoluogo","CODACQUED":"NG2COM0300","ZSERBATOIO":520,"VOLUMUTILE":50,"QUOTMINESE":-999,"QUOTMAXESE":-999,"FUNZIOSER":"CO","TIPSERBAT":"SI","ANNOREAL":1980,"TIPFUNZION":"CO","TELECONTR":"N","STATOSERV":"S"}},
{"type":"Feature","geometry":{"type":"Point","coordinates":[9.66295349641433,44.4971879467757,0]},"properties":{"CODICESER":"NG2COM0300007","DENOMSERB":"Ponte di Compiano","CODACQUED":"NG2COM0300","ZSERBATOIO":519,"VOLUMUTILE":15,"QUOTMINESE":-999,"QUOTMAXESE":-999,"FUNZIOSER":"CO","TIPSERBAT":"SI","ANNOREAL":1904,"TIPFUNZION":"CO","TELECONTR":"N","STATOSERV":"S"}},
{"type":"Feature","geometry":{"type":"Point","coordinates":[9.68954486474195,44.4902870743651,0]},"properties":{"CODICESER":"NG2COM0300011","DENOMSERB":"Barbigarezza","CODACQUED":"NG2COM0300","ZSERBATOIO":555,"VOLUMUTILE":20,"QUOTMINESE":-999,"QUOTMAXESE":-999,"FUNZIOSER":"CO","TIPSERBAT":"SI","ANNOREAL":1955,"TIPFUNZION":"CO","TELECONTR":"N","STATOSERV":"S"}},
{"type":"Feature","geometry":{"type":"Point","coordinates":[9.65356361789477,44.4508593538332,0]},"properties":{"CODICESER":"NG2ALB1207015","DENOMSERB":"Codogno","CODACQUED":"NG2ALB1207","ZSERBATOIO":688,"VOLUMUTILE":30,"QUOTMINESE":-999,"QUOTMAXESE":-999,"FUNZIOSER":"CO","TIPSERBAT":"SI","ANNOREAL":-999,"TIPFUNZION":"CO","TELECONTR":"N","STATOSERV":"S"}},
{"type":"Feature","geometry":{"type":"Point","coordinates":[9.6747920447988,44.4533799171377,0]},"properties":{"CODICESER":"NG2ALB1207004","DENOMSERB":"Cacchioli basso","CODACQUED":"NG2ALB1207","ZSERBATOIO":695,"VOLUMUTILE":4,"QUOTMINESE":-999,"QUOTMAXESE":-999,"FUNZIOSER":"CO","TIPSERBAT":"SI","ANNOREAL":2000,"TIPFUNZION":"CO","TELECONTR":"N","STATOSERV":"S"}},
{"type":"Feature","geometry":{"type":"Point","coordinates":[9.67980143772749,44.4465972654317,0]},"properties":{"CODICESER":"NG2ALB1207006","DENOMSERB":"S. Quirico","CODACQUED":"NG2ALB1207","ZSERBATOIO":527,"VOLUMUTILE":24,"QUOTMINESE":-999,"QUOTMAXESE":-999,"FUNZIOSER":"CO","TIPSERBAT":"SI","ANNOREAL":1980,"TIPFUNZION":"CO","TELECONTR":"N","STATOSERV":"S"}},
{"type":"Feature","geometry":{"type":"Point","coordinates":[9.65985303813656,44.4379604236888,0]},"properties":{"CODICESER":"NG2ALB1216002","DENOMSERB":"Lazzarè - Cacciarasca","CODACQUED":"NG2ALB1216","ZSERBATOIO":742,"VOLUMUTILE":10,"QUOTMINESE":-999,"QUOTMAXESE":-999,"FUNZIOSER":"CO","TIPSERBAT":"SI","ANNOREAL":-999,"TIPFUNZION":"CO","TELECONTR":"N","STATOSERV":"S"}},
{"type":"Feature","geometry":{"type":"Point","coordinates":[9.6808782629252,44.4342425868612,0]},"properties":{"CODICESER":"NG2ALB1220004","DENOMSERB":"Tombeto","CODACQUED":"NG2ALB1220","ZSERBATOIO":650,"VOLUMUTILE":24,"QUOTMINESE":-999,"QUOTMAXESE":-999,"FUNZIOSER":"CO","TIPSERBAT":"SI","ANNOREAL":1970,"TIPFUNZION":"CO","TELECONTR":"N","STATOSERV":"S"}},
{"type":"Feature","geometry":{"type":"Point","coordinates":[9.71947509790431,44.4507347219391,0]},"properties":{"CODICESER":"NG2ALB1224003","DENOMSERB":"La Costa di Case Mirani","CODACQUED":"NG2ALB1224","ZSERBATOIO":649,"VOLUMUTILE":65,"QUOTMINESE":-999,"QUOTMAXESE":-999,"FUNZIOSER":"CO","TIPSERBAT":"SI","ANNOREAL":-999,"TIPFUNZION":"CO","TELECONTR":"N","STATOSERV":"S"}},
{"type":"Feature","geometry":{"type":"Point","coordinates":[9.7320901428491,44.4516278400065,0]},"properties":{"CODICESER":"NG2ALB1239001","DENOMSERB":"Sterpeto","CODACQUED":"NG2ALB1239","ZSERBATOIO":668,"VOLUMUTILE":24,"QUOTMINESE":-999,"QUOTMAXESE":-999,"FUNZIOSER":"CO","TIPSERBAT":"SI","ANNOREAL":-999,"TIPFUNZION":"CO","TELECONTR":"N","STATOSERV":"S"}},
{"type":"Feature","geometry":{"type":"Point","coordinates":[9.73730752605615,44.4539881780655,0]},"properties":{"CODICESER":"NG2ALB1239005","DENOMSERB":"Roncole","CODACQUED":"NG2ALB1239","ZSERBATOIO":673,"VOLUMUTILE":24,"QUOTMINESE":-999,"QUOTMAXESE":-999,"FUNZIOSER":"CO","TIPSERBAT":"SI","ANNOREAL":1980,"TIPFUNZION":"CO","TELECONTR":"N","STATOSERV":"S"}},
{"type":"Feature","geometry":{"type":"Point","coordinates":[9.74378596413454,44.4534816848308,0]},"properties":{"CODICESER":"NG2ALB1244001","DENOMSERB":"Cipalo alto","CODACQUED":"NG2ALB1244","ZSERBATOIO":729,"VOLUMUTILE":30,"QUOTMINESE":-999,"QUOTMAXESE":-999,"FUNZIOSER":"CO","TIPSERBAT":"SI","ANNOREAL":-999,"TIPFUNZION":"CO","TELECONTR":"N","STATOSERV":"S"}},
{"type":"Feature","geometry":{"type":"Point","coordinates":[9.74400498649358,44.4550166412288,0]},"properties":{"CODICESER":"NG2ALB1244002","DENOMSERB":"Cipalo","CODACQUED":"NG2ALB1244","ZSERBATOIO":693,"VOLUMUTILE":30,"QUOTMINESE":-999,"QUOTMAXESE":-999,"FUNZIOSER":"CO","TIPSERBAT":"SI","ANNOREAL":-999,"TIPFUNZION":"CO","TELECONTR":"N","STATOSERV":"S"}},
{"type":"Feature","geometry":{"type":"Point","coordinates":[9.74874544145964,44.4551285821144,0]},"properties":{"CODICESER":"NG2ALB1240002","DENOMSERB":"Lago Speroso","CODACQUED":"NG2ALB1240","ZSERBATOIO":732,"VOLUMUTILE":10,"QUOTMINESE":-999,"QUOTMAXESE":-999,"FUNZIOSER":"CO","TIPSERBAT":"SI","ANNOREAL":-999,"TIPFUNZION":"CO","TELECONTR":"N","STATOSERV":"S"}},
{"type":"Feature","geometry":{"type":"Point","coordinates":[9.74551161249941,44.4479680359719,0]},"properties":{"CODICESER":"NG2ALB1240009","DENOMSERB":"Gotra alto","CODACQUED":"NG2ALB1240","ZSERBATOIO":501,"VOLUMUTILE":30,"QUOTMINESE":-999,"QUOTMAXESE":-999,"FUNZIOSER":"CO","TIPSERBAT":"SI","ANNOREAL":-999,"TIPFUNZION":"CO","TELECONTR":"N","STATOSERV":"S"}},
{"type":"Feature","geometry":{"type":"Point","coordinates":[9.69706593230347,44.4648803919655,0]},"properties":{"CODICESER":"NG2ALB1207007","DENOMSERB":"Cacciaguerra","CODACQUED":"NG2ALB1207","ZSERBATOIO":654,"VOLUMUTILE":24,"QUOTMINESE":-999,"QUOTMAXESE":-999,"FUNZIOSER":"CO","TIPSERBAT":"SI","ANNOREAL":-999,"TIPFUNZION":"CO","TELECONTR":"N","STATOSERV":"S"}},
{"type":"Feature","geometry":{"type":"Point","coordinates":[9.67032111555874,44.4773202644427,0]},"properties":{"CODICESER":"NG2ALB1207010","DENOMSERB":"Frassoni","CODACQUED":"NG2ALB1207","ZSERBATOIO":501,"VOLUMUTILE":60,"QUOTMINESE":-999,"QUOTMAXESE":-999,"FUNZIOSER":"CO","TIPSERBAT":"SI","ANNOREAL":-999,"TIPFUNZION":"CO","TELECONTR":"N","STATOSERV":"S"}},
{"type":"Feature","geometry":{"type":"Point","coordinates":[9.64383118054301,44.4205245642163,0]},"properties":{"CODICESER":"NG2ALB1207001","DENOMSERB":"Vallercina alto","CODACQUED":"NG2ALB1207","ZSERBATOIO":976,"VOLUMUTILE":4,"QUOTMINESE":-999,"QUOTMAXESE":-999,"FUNZIOSER":"CO","TIPSERBAT":"SI","ANNOREAL":-999,"TIPFUNZION":"CO","TELECONTR":"N","STATOSERV":"S"}},
{"type":"Feature","geometry":{"type":"Point","coordinates":[9.64110485548517,44.4236322787388,0]},"properties":{"CODICESER":"NG2ALB1207002","DENOMSERB":"Vallercina basso","CODACQUED":"NG2ALB1207","ZSERBATOIO":901,"VOLUMUTILE":50,"QUOTMINESE":-999,"QUOTMAXESE":-999,"FUNZIOSER":"CO","TIPSERBAT":"SI","ANNOREAL":-999,"TIPFUNZION":"CO","TELECONTR":"N","STATOSERV":"S"}},
{"type":"Feature","geometry":{"type":"Point","coordinates":[9.63502380562218,44.43703601883,0]},"properties":{"CODICESER":"NG2ALB1207003","DENOMSERB":"Miramonti - Cantoniera","CODACQUED":"NG2ALB1207","ZSERBATOIO":852,"VOLUMUTILE":2,"QUOTMINESE":-999,"QUOTMAXESE":-999,"FUNZIOSER":"CO","TIPSERBAT":"SI","ANNOREAL":2000,"TIPFUNZION":"CO","TELECONTR":"N","STATOSERV":"S"}},
{"type":"Feature","geometry":{"type":"Point","coordinates":[9.63442098576233,44.4376746539447,0]},"properties":{"CODICESER":"NG2TOR1330001","DENOMSERB":"Serbatoio Miramonti-Cantoniera","CODACQUED":"NG2TOR1330","ZSERBATOIO":866,"VOLUMUTILE":40,"QUOTMINESE":-999,"QUOTMAXESE":-999,"FUNZIOSER":"CO","TIPSERBAT":"SI","ANNOREAL":2000,"TIPFUNZION":"CO","TELECONTR":"N","STATOSERV":"S"}},
{"type":"Feature","geometry":{"type":"Point","coordinates":[9.66325231726453,44.4336926320866,0]},"properties":{"CODICESER":"NG2ALB1216001","DENOMSERB":"Cacciarasca 1","CODACQUED":"NG2ALB1216","ZSERBATOIO":778,"VOLUMUTILE":2,"QUOTMINESE":-999,"QUOTMAXESE":-999,"FUNZIOSER":"CO","TIPSERBAT":"SI","ANNOREAL":-999,"TIPFUNZION":"CO","TELECONTR":"N","STATOSERV":"S"}},
{"type":"Feature","geometry":{"type":"Point","coordinates":[9.66834169686737,44.429431017583,0]},"properties":{"CODICESER":"NG2ALB1220001","DENOMSERB":"Pelami","CODACQUED":"NG2ALB1220","ZSERBATOIO":857,"VOLUMUTILE":10,"QUOTMINESE":-999,"QUOTMAXESE":-999,"FUNZIOSER":"CO","TIPSERBAT":"SI","ANNOREAL":-999,"TIPFUNZION":"CO","TELECONTR":"N","STATOSERV":"S"}},
{"type":"Feature","geometry":{"type":"Point","coordinates":[9.67290900076839,44.4351913144096,0]},"properties":{"CODICESER":"NG2ALB1220002","DENOMSERB":"Folta alto","CODACQUED":"NG2ALB1220","ZSERBATOIO":783,"VOLUMUTILE":30,"QUOTMINESE":-999,"QUOTMAXESE":-999,"FUNZIOSER":"CO","TIPSERBAT":"SI","ANNOREAL":-999,"TIPFUNZION":"CO","TELECONTR":"N","STATOSERV":"S"}},
{"type":"Feature","geometry":{"type":"Point","coordinates":[9.67414795057785,44.4358038358796,0]},"properties":{"CODICESER":"NG2ALB1220003","DENOMSERB":"Folta","CODACQUED":"NG2ALB1220","ZSERBATOIO":754,"VOLUMUTILE":30,"QUOTMINESE":-999,"QUOTMAXESE":-999,"FUNZIOSER":"CO","TIPSERBAT":"SI","ANNOREAL":-999,"TIPFUNZION":"CO","TELECONTR":"N","STATOSERV":"S"}},
{"type":"Feature","geometry":{"type":"Point","coordinates":[9.76006863354164,44.4673765139852,0]},"properties":{"CODICESER":"NG2ALB1248002","DENOMSERB":"Stabielle - Zanrè","CODACQUED":"NG2ALB1248","ZSERBATOIO":654,"VOLUMUTILE":40,"QUOTMINESE":-999,"QUOTMAXESE":-999,"FUNZIOSER":"CO","TIPSERBAT":"SI","ANNOREAL":1960,"TIPFUNZION":"CO","TELECONTR":"N","STATOSERV":"S"}},
{"type":"Feature","geometry":{"type":"Point","coordinates":[9.75738434460357,44.4702466054946,0]},"properties":{"CODICESER":"NG2ALB1248003","DENOMSERB":"Farneto","CODACQUED":"NG2ALB1248","ZSERBATOIO":563,"VOLUMUTILE":30,"QUOTMINESE":-999,"QUOTMAXESE":-999,"FUNZIOSER":"CO","TIPSERBAT":"SI","ANNOREAL":1960,"TIPFUNZION":"CO","TELECONTR":"N","STATOSERV":"S"}},
{"type":"Feature","geometry":{"type":"Point","coordinates":[9.74617316889355,44.4766297444695,0]},"properties":{"CODICESER":"NG2ALB1240004","DENOMSERB":"Ponte Scodellino 1","CODACQUED":"NG2ALB1240","ZSERBATOIO":450,"VOLUMUTILE":30,"QUOTMINESE":-999,"QUOTMAXESE":-999,"FUNZIOSER":"CO","TIPSERBAT":"SI","ANNOREAL":1960,"TIPFUNZION":"CO","TELECONTR":"N","STATOSERV":"S"}},
{"type":"Feature","geometry":{"type":"Point","coordinates":[9.73690814249069,44.4668516285592,0]},"properties":{"CODICESER":"NG2ALB1240006","DENOMSERB":"Gotra basso","CODACQUED":"NG2ALB1240","ZSERBATOIO":505,"VOLUMUTILE":50,"QUOTMINESE":-999,"QUOTMAXESE":-999,"FUNZIOSER":"CO","TIPSERBAT":"SI","ANNOREAL":-999,"TIPFUNZION":"CO","TELECONTR":"N","STATOSERV":"S"}},
{"type":"Feature","geometry":{"type":"Point","coordinates":[9.73720518224367,44.4642424391026,0]},"properties":{"CODICESER":"NG2ALB1240007","DENOMSERB":"Gotra alto","CODACQUED":"NG2ALB1240","ZSERBATOIO":501,"VOLUMUTILE":30,"QUOTMINESE":-999,"QUOTMAXESE":-999,"FUNZIOSER":"CO","TIPSERBAT":"SI","ANNOREAL":-999,"TIPFUNZION":"CO","TELECONTR":"N","STATOSERV":"S"}},
{"type":"Feature","geometry":{"type":"Point","coordinates":[9.74045654112398,44.4425517895427,0]},"properties":{"CODICESER":"NG2ALB1239003","DENOMSERB":"Buzzò","CODACQUED":"NG2ALB1239","ZSERBATOIO":828,"VOLUMUTILE":30,"QUOTMINESE":-999,"QUOTMAXESE":-999,"FUNZIOSER":"CO","TIPSERBAT":"SI","ANNOREAL":1980,"TIPFUNZION":"CO","TELECONTR":"N","STATOSERV":"S"}},
{"type":"Feature","geometry":{"type":"Point","coordinates":[9.73816814678769,44.4456881251441,0]},"properties":{"CODICESER":"NG2ALB1239004","DENOMSERB":"Buzzò riserva","CODACQUED":"NG2ALB1239","ZSERBATOIO":772,"VOLUMUTILE":60,"QUOTMINESE":-999,"QUOTMAXESE":-999,"FUNZIOSER":"CO","TIPSERBAT":"SI","ANNOREAL":1980,"TIPFUNZION":"CO","TELECONTR":"N","STATOSERV":"S"}},
{"type":"Feature","geometry":{"type":"Point","coordinates":[9.71034289632047,44.4458892866478,0]},"properties":{"CODICESER":"NG2ALB1200005","DENOMSERB":"Costello","CODACQUED":"NG2ALB1200","ZSERBATOIO":609,"VOLUMUTILE":60,"QUOTMINESE":-999,"QUOTMAXESE":-999,"FUNZIOSER":"CO","TIPSERBAT":"SI","ANNOREAL":-999,"TIPFUNZION":"CO","TELECONTR":"N","STATOSERV":"S"}},
{"type":"Feature","geometry":{"type":"Point","coordinates":[9.70807388826288,44.4450275415497,0]},"properties":{"CODICESER":"NG2ALB1200006","DENOMSERB":"La Torre","CODACQUED":"NG2ALB1200","ZSERBATOIO":603,"VOLUMUTILE":5,"QUOTMINESE":-999,"QUOTMAXESE":-999,"FUNZIOSER":"CO","TIPSERBAT":"SI","ANNOREAL":-999,"TIPFUNZION":"CO","TELECONTR":"N","STATOSERV":"S"}},
{"type":"Feature","geometry":{"type":"Point","coordinates":[9.709583,44.4408770009431,0]},"properties":{"CODICESER":"NG2ALB1200007","DENOMSERB":"Cravareccio","CODACQUED":"NG2ALB1200","ZSERBATOIO":678,"VOLUMUTILE":24,"QUOTMINESE":-999,"QUOTMAXESE":-999,"FUNZIOSER":"CO","TIPSERBAT":"SI","ANNOREAL":-999,"TIPFUNZION":"CO","TELECONTR":"N","STATOSERV":"S"}},
{"type":"Feature","geometry":{"type":"Point","coordinates":[9.71354586928861,44.4555313596542,0]},"properties":{"CODICESER":"NG2ALB1224001","DENOMSERB":"Case Muneghi","CODACQUED":"NG2ALB1224","ZSERBATOIO":546,"VOLUMUTILE":30,"QUOTMINESE":-999,"QUOTMAXESE":-999,"FUNZIOSER":"CO","TIPSERBAT":"SI","ANNOREAL":-999,"TIPFUNZION":"CO","TELECONTR":"N","STATOSERV":"S"}},
{"type":"Feature","geometry":{"type":"Point","coordinates":[9.717743,44.4310850009431,0]},"properties":{"CODICESER":"NG2ALB1235001","DENOMSERB":"Le Praie","CODACQUED":"NG2ALB1235","ZSERBATOIO":868,"VOLUMUTILE":4,"QUOTMINESE":-999,"QUOTMAXESE":-999,"FUNZIOSER":"CO","TIPSERBAT":"SI","ANNOREAL":-999,"TIPFUNZION":"CO","TELECONTR":"N","STATOSERV":"S"}},
{"type":"Feature","geometry":{"type":"Point","coordinates":[9.70863250230665,44.4331372849936,0]},"properties":{"CODICESER":"NG2ALB1235002","DENOMSERB":"Case Bosini","CODACQUED":"NG2ALB1235","ZSERBATOIO":761,"VOLUMUTILE":60,"QUOTMINESE":-999,"QUOTMAXESE":-999,"FUNZIOSER":"CO","TIPSERBAT":"SI","ANNOREAL":-999,"TIPFUNZION":"CO","TELECONTR":"N","STATOSERV":"S"}},
{"type":"Feature","geometry":{"type":"Point","coordinates":[9.70343819234721,44.4350572861763,0]},"properties":{"CODICESER":"NG2ALB1235003","DENOMSERB":"Case Mercantoni","CODACQUED":"NG2ALB1235","ZSERBATOIO":666,"VOLUMUTILE":60,"QUOTMINESE":-999,"QUOTMAXESE":-999,"FUNZIOSER":"CO","TIPSERBAT":"SI","ANNOREAL":-999,"TIPFUNZION":"CO","TELECONTR":"N","STATOSERV":"S"}},
{"type":"Feature","geometry":{"type":"Point","coordinates":[9.65342928073522,44.439068575143,0]},"properties":{"CODICESER":"NG2ALB1246001","DENOMSERB":"Codogno","CODACQUED":"NG2ALB1246","ZSERBATOIO":688,"VOLUMUTILE":30,"QUOTMINESE":-999,"QUOTMAXESE":-999,"FUNZIOSER":"CO","TIPSERBAT":"SI","ANNOREAL":-999,"TIPFUNZION":"CO","TELECONTR":"N","STATOSERV":"S"}},
{"type":"Feature","geometry":{"type":"Point","coordinates":[9.753265,44.4470410009431,0]},"properties":{"CODICESER":"NG2ALB1240010","DENOMSERB":"Lumagotto","CODACQUED":"NG2ALB1240","ZSERBATOIO":934,"VOLUMUTILE":10,"QUOTMINESE":-999,"QUOTMAXESE":-999,"FUNZIOSER":"CO","TIPSERBAT":"SI","ANNOREAL":-999,"TIPFUNZION":"CO","TELECONTR":"N","STATOSERV":"S"}},
{"type":"Feature","geometry":{"type":"Point","coordinates":[9.64699050068291,44.4519045494689,0]},"properties":{"CODICESER":"NG2ALB1207014","DENOMSERB":"Serbatoio Monte Traforo","CODACQUED":"NG2ALB1207","ZSERBATOIO":804,"VOLUMUTILE":20,"QUOTMINESE":-999,"QUOTMAXESE":-999,"FUNZIOSER":"CO","TIPSERBAT":"SI","ANNOREAL":-999,"TIPFUNZION":"CO","TELECONTR":"N","STATOSERV":"S"}},
{"type":"Feature","geometry":{"type":"Point","coordinates":[9.609688,44.4727810009431,0]},"properties":{"CODICESER":"NG2TOR1300001","DENOMSERB":"Serbatoio Fontanella I","CODACQUED":"NG2TOR1300","ZSERBATOIO":732,"VOLUMUTILE":4,"QUOTMINESE":-999,"QUOTMAXESE":-999,"FUNZIOSER":"CO","TIPSERBAT":"SI","ANNOREAL":1960,"TIPFUNZION":"CO","TELECONTR":"N","STATOSERV":"S"}},
{"type":"Feature","geometry":{"type":"Point","coordinates":[9.62296006875841,44.4810100539041,0]},"properties":{"CODICESER":"NG2TOR1300005","DENOMSERB":"Serbatoio Il Casale","CODACQUED":"NG2TOR1300","ZSERBATOIO":690.5,"VOLUMUTILE":34,"QUOTMINESE":-999,"QUOTMAXESE":-999,"FUNZIOSER":"CO","TIPSERBAT":"SI","ANNOREAL":1960,"TIPFUNZION":"CO","TELECONTR":"N","STATOSERV":"S"}},
{"type":"Feature","geometry":{"type":"Point","coordinates":[9.62593457238408,44.4872652023434,0]},"properties":{"CODICESER":"NG2TOR1300004","DENOMSERB":"Serbatoio Santarelli","CODACQUED":"NG2TOR1300","ZSERBATOIO":587,"VOLUMUTILE":15,"QUOTMINESE":-999,"QUOTMAXESE":-999,"FUNZIOSER":"CO","TIPSERBAT":"SI","ANNOREAL":1960,"TIPFUNZION":"CO","TELECONTR":"N","STATOSERV":"S"}},
{"type":"Feature","geometry":{"type":"Point","coordinates":[9.62685710597735,44.4628296259401,0]},"properties":{"CODICESER":"NG2TOR1303001","DENOMSERB":"Serbatoio Niare","CODACQUED":"NG2TOR1303","ZSERBATOIO":817,"VOLUMUTILE":12,"QUOTMINESE":-999,"QUOTMAXESE":-999,"FUNZIOSER":"CO","TIPSERBAT":"SI","ANNOREAL":1960,"TIPFUNZION":"CO","TELECONTR":"N","STATOSERV":"S"}},
{"type":"Feature","geometry":{"type":"Point","coordinates":[9.62555133127796,44.4643623917868,0]},"properties":{"CODICESER":"NG2TOR1303002","DENOMSERB":"Serbatoio Costa Marzuola","CODACQUED":"NG2TOR1303","ZSERBATOIO":827,"VOLUMUTILE":10,"QUOTMINESE":-999,"QUOTMAXESE":-999,"FUNZIOSER":"CO","TIPSERBAT":"SI","ANNOREAL":1960,"TIPFUNZION":"CO","TELECONTR":"N","STATOSERV":"S"}},
{"type":"Feature","geometry":{"type":"Point","coordinates":[9.63329344222615,44.4674818116642,0]},"properties":{"CODICESER":"NG2TOR1303003","DENOMSERB":"Serbatoio Possion","CODACQUED":"NG2TOR1303","ZSERBATOIO":786,"VOLUMUTILE":8,"QUOTMINESE":-999,"QUOTMAXESE":-999,"FUNZIOSER":"CO","TIPSERBAT":"SI","ANNOREAL":1950,"TIPFUNZION":"CO","TELECONTR":"N","STATOSERV":"S"}},
{"type":"Feature","geometry":{"type":"Point","coordinates":[9.63837026224672,44.4694495327596,0]},"properties":{"CODICESER":"NG2TOR1303004","DENOMSERB":"Serbatoio Marzuola 1","CODACQUED":"NG2TOR1303","ZSERBATOIO":754,"VOLUMUTILE":1,"QUOTMINESE":-999,"QUOTMAXESE":-999,"FUNZIOSER":"CO","TIPSERBAT":"SI","ANNOREAL":1950,"TIPFUNZION":"CO","TELECONTR":"N","STATOSERV":"S"}},
{"type":"Feature","geometry":{"type":"Point","coordinates":[9.63785981704945,44.4699228264045,0]},"properties":{"CODICESER":"NG2TOR1303005","DENOMSERB":"Serbatoio Marzuola 2","CODACQUED":"NG2TOR1303","ZSERBATOIO":763,"VOLUMUTILE":20,"QUOTMINESE":-999,"QUOTMAXESE":-999,"FUNZIOSER":"CO","TIPSERBAT":"SI","ANNOREAL":1970,"TIPFUNZION":"CO","TELECONTR":"N","STATOSERV":"S"}},
{"type":"Feature","geometry":{"type":"Point","coordinates":[9.61972455075826,44.4560352500343,0]},"properties":{"CODICESER":"NG2TOR1303006","DENOMSERB":"Serbatoio Frutti di Bosco","CODACQUED":"NG2TOR1303","ZSERBATOIO":832,"VOLUMUTILE":2,"QUOTMINESE":-999,"QUOTMAXESE":-999,"FUNZIOSER":"CO","TIPSERBAT":"SI","ANNOREAL":1970,"TIPFUNZION":"CO","TELECONTR":"N","STATOSERV":"S"}},
{"type":"Feature","geometry":{"type":"Point","coordinates":[9.6188550482634,44.4566897918404,0]},"properties":{"CODICESER":"NG2TOR1303015","DENOMSERB":"Serbatoio campo sportivo Pei Tarsogno","CODACQUED":"NG2TOR1303","ZSERBATOIO":848,"VOLUMUTILE":5,"QUOTMINESE":-999,"QUOTMAXESE":-999,"FUNZIOSER":"CO","TIPSERBAT":"SI","ANNOREAL":1950,"TIPFUNZION":"OR","TELECONTR":"N","STATOSERV":"D"}},
{"type":"Feature","geometry":{"type":"Point","coordinates":[9.6180130082288,44.4443820093881,0]},"properties":{"CODICESER":"NG2TOR1303008","DENOMSERB":"Serbatoio La Croce","CODACQUED":"NG2TOR1303","ZSERBATOIO":902,"VOLUMUTILE":25,"QUOTMINESE":-999,"QUOTMAXESE":-999,"FUNZIOSER":"CO","TIPSERBAT":"SI","ANNOREAL":1960,"TIPFUNZION":"CO","TELECONTR":"N","STATOSERV":"S"}},
{"type":"Feature","geometry":{"type":"Point","coordinates":[9.6105194903538,44.4436281167932,0]},"properties":{"CODICESER":"NG2TOR1326001","DENOMSERB":"Serbatoio Il Poso","CODACQUED":"NG2TOR1326","ZSERBATOIO":1074,"VOLUMUTILE":1,"QUOTMINESE":-999,"QUOTMAXESE":-999,"FUNZIOSER":"CO","TIPSERBAT":"SI","ANNOREAL":1950,"TIPFUNZION":"CO","TELECONTR":"N","STATOSERV":"D"}},
{"type":"Feature","geometry":{"type":"Point","coordinates":[9.61510128004725,44.4432913910233,0]},"properties":{"CODICESER":"NG2TOR1330002","DENOMSERB":"Serbatoio Pian di Petan","CODACQUED":"NG2TOR1330","ZSERBATOIO":918,"VOLUMUTILE":4,"QUOTMINESE":-999,"QUOTMAXESE":-999,"FUNZIOSER":"CO","TIPSERBAT":"SI","ANNOREAL":1950,"TIPFUNZION":"CO","TELECONTR":"N","STATOSERV":"S"}},
{"type":"Feature","geometry":{"type":"Point","coordinates":[9.62336686029495,44.4400384175864,0]},"properties":{"CODICESER":"NG2TOR1305002","DENOMSERB":"Serbatoio Albergo Centrale","CODACQUED":"NG2TOR1305","ZSERBATOIO":847,"VOLUMUTILE":2,"QUOTMINESE":-999,"QUOTMAXESE":-999,"FUNZIOSER":"CO","TIPSERBAT":"SI","ANNOREAL":2000,"TIPFUNZION":"CO","TELECONTR":"N","STATOSERV":"S"}},
{"type":"Feature","geometry":{"type":"Point","coordinates":[9.61976791288186,44.4390717637987,0]},"properties":{"CODICESER":"NG2TOR1305003","DENOMSERB":"Serbatoio M. Corrone","CODACQUED":"NG2TOR1305","ZSERBATOIO":942,"VOLUMUTILE":1,"QUOTMINESE":-999,"QUOTMAXESE":-999,"FUNZIOSER":"CO","TIPSERBAT":"SI","ANNOREAL":1960,"TIPFUNZION":"CO","TELECONTR":"N","STATOSERV":"S"}},
{"type":"Feature","geometry":{"type":"Point","coordinates":[9.61994113956039,44.4342893898089,0]},"properties":{"CODICESER":"NG2TOR1305001","DENOMSERB":"Serbatoio Pratolungo II","CODACQUED":"NG2TOR1305","ZSERBATOIO":959,"VOLUMUTILE":4,"QUOTMINESE":-999,"QUOTMAXESE":-999,"FUNZIOSER":"CO","TIPSERBAT":"SI","ANNOREAL":1950,"TIPFUNZION":"CO","TELECONTR":"N","STATOSERV":"S"}},
{"type":"Feature","geometry":{"type":"Point","coordinates":[9.6189897340353,44.4326883679714,0]},"properties":{"CODICESER":"NG2TOR1307002","DENOMSERB":"Serbatoio Pratolungo I","CODACQUED":"NG2TOR1307","ZSERBATOIO":984,"VOLUMUTILE":20,"QUOTMINESE":-999,"QUOTMAXESE":-999,"FUNZIOSER":"CO","TIPSERBAT":"SI","ANNOREAL":1950,"TIPFUNZION":"CO","TELECONTR":"N","STATOSERV":"S"}},
{"type":"Feature","geometry":{"type":"Point","coordinates":[9.61832984057638,44.4318207260104,0]},"properties":{"CODICESER":"NG2TOR1307001","DENOMSERB":"Serbatoio M. Carmine","CODACQUED":"NG2TOR1307","ZSERBATOIO":998,"VOLUMUTILE":1,"QUOTMINESE":-999,"QUOTMAXESE":-999,"FUNZIOSER":"CO","TIPSERBAT":"SI","ANNOREAL":1960,"TIPFUNZION":"CO","TELECONTR":"N","STATOSERV":"S"}},
{"type":"Feature","geometry":{"type":"Point","coordinates":[9.63400940293598,44.4469595743281,0]},"properties":{"CODICESER":"NG2TOR1326002","DENOMSERB":"Serbatoio Breila","CODACQUED":"NG2TOR1326","ZSERBATOIO":742,"VOLUMUTILE":30,"QUOTMINESE":-999,"QUOTMAXESE":-999,"FUNZIOSER":"CO","TIPSERBAT":"SI","ANNOREAL":1950,"TIPFUNZION":"CO","TELECONTR":"N","STATOSERV":"S"}},
{"type":"Feature","geometry":{"type":"Point","coordinates":[9.58471677450947,44.4508371138494,0]},"properties":{"CODICESER":"NG2TOR1314001","DENOMSERB":"Serbatoio Vannini 1","CODACQUED":"NG2TOR1314","ZSERBATOIO":894,"VOLUMUTILE":1,"QUOTMINESE":-999,"QUOTMAXESE":-999,"FUNZIOSER":"CO","TIPSERBAT":"SI","ANNOREAL":1980,"TIPFUNZION":"CO","TELECONTR":"N","STATOSERV":"S"}},
{"type":"Feature","geometry":{"type":"Point","coordinates":[9.57764185801257,44.4518354386147,0]},"properties":{"CODICESER":"NG2TOR1314002","DENOMSERB":"Serbatoio Truffelli","CODACQUED":"NG2TOR1314","ZSERBATOIO":808,"VOLUMUTILE":25,"QUOTMINESE":-999,"QUOTMAXESE":-999,"FUNZIOSER":"CO","TIPSERBAT":"SI","ANNOREAL":1950,"TIPFUNZION":"CO","TELECONTR":"N","STATOSERV":"S"}},
{"type":"Feature","geometry":{"type":"Point","coordinates":[9.58253899850665,44.4505988743137,0]},"properties":{"CODICESER":"NG2TOR1313001","DENOMSERB":"Serbatoio Vannini 2","CODACQUED":"NG2TOR1314","ZSERBATOIO":794,"VOLUMUTILE":12,"QUOTMINESE":-999,"QUOTMAXESE":-999,"FUNZIOSER":"CO","TIPSERBAT":"SI","ANNOREAL":1950,"TIPFUNZION":"CO","TELECONTR":"N","STATOSERV":"S"}},
{"type":"Feature","geometry":{"type":"Point","coordinates":[9.56920396379639,44.455400879863,0]},"properties":{"CODICESER":"NG2TOR1314003","DENOMSERB":"Serbatoio PonteStrambo","CODACQUED":"NG2TOR1314","ZSERBATOIO":649,"VOLUMUTILE":20,"QUOTMINESE":-999,"QUOTMAXESE":-999,"FUNZIOSER":"CO","TIPSERBAT":"SI","ANNOREAL":1970,"TIPFUNZION":"CO","TELECONTR":"N","STATOSERV":"S"}},
{"type":"Feature","geometry":{"type":"Point","coordinates":[9.54209840982275,44.4383303034675,0]},"properties":{"CODICESER":"NG2TOR1310001","DENOMSERB":"Serbatoio Giuncareggio alto","CODACQUED":"NG2TOR1310","ZSERBATOIO":810,"VOLUMUTILE":16,"QUOTMINESE":-999,"QUOTMAXESE":-999,"FUNZIOSER":"CO","TIPSERBAT":"SI","ANNOREAL":1960,"TIPFUNZION":"CO","TELECONTR":"N","STATOSERV":"S"}},
{"type":"Feature","geometry":{"type":"Point","coordinates":[9.54448007248345,44.4367430041084,0]},"properties":{"CODICESER":"NG2TOR1310002","DENOMSERB":"Serbatoio Giuncareggio","CODACQUED":"NG2TOR1310","ZSERBATOIO":800,"VOLUMUTILE":25,"QUOTMINESE":-999,"QUOTMAXESE":-999,"FUNZIOSER":"CO","TIPSERBAT":"SI","ANNOREAL":1970,"TIPFUNZION":"CO","TELECONTR":"N","STATOSERV":"S"}},
{"type":"Feature","geometry":{"type":"Point","coordinates":[9.54497715434962,44.4325459329926,0]},"properties":{"CODICESER":"NG2TOR1311001","DENOMSERB":"Serbatoio C.Laù","CODACQUED":"NG2TOR1311","ZSERBATOIO":746,"VOLUMUTILE":6,"QUOTMINESE":-999,"QUOTMAXESE":-999,"FUNZIOSER":"CO","TIPSERBAT":"SI","ANNOREAL":1970,"TIPFUNZION":"CO","TELECONTR":"N","STATOSERV":"S"}},
{"type":"Feature","geometry":{"type":"Point","coordinates":[9.514101,44.4373620009431,0]},"properties":{"CODICESER":"NG2TOR1328001","DENOMSERB":"Serbatoio raccolta Presa Menta","CODACQUED":"NG2TOR1328","ZSERBATOIO":853,"VOLUMUTILE":4,"QUOTMINESE":-999,"QUOTMAXESE":-999,"FUNZIOSER":"CO","TIPSERBAT":"SI","ANNOREAL":1960,"TIPFUNZION":"CO","TELECONTR":"N","STATOSERV":"S"}},
{"type":"Feature","geometry":{"type":"Point","coordinates":[9.51111565006659,44.4314071176602,0]},"properties":{"CODICESER":"NG2TOR1328002","DENOMSERB":"Serbatoio Cerosa","CODACQUED":"NG2TOR1328","ZSERBATOIO":738,"VOLUMUTILE":24,"QUOTMINESE":-999,"QUOTMAXESE":-999,"FUNZIOSER":"CO","TIPSERBAT":"SI","ANNOREAL":1960,"TIPFUNZION":"CO","TELECONTR":"N","STATOSERV":"S"}},
{"type":"Feature","geometry":{"type":"Point","coordinates":[9.49164266407512,44.4368427173982,0]},"properties":{"CODICESER":"NG2TOR1327001","DENOMSERB":"Serbatoio Squeri","CODACQUED":"NG2TOR1327","ZSERBATOIO":802,"VOLUMUTILE":15,"QUOTMINESE":-999,"QUOTMAXESE":-999,"FUNZIOSER":"CO","TIPSERBAT":"SI","ANNOREAL":1960,"TIPFUNZION":"CO","TELECONTR":"N","STATOSERV":"S"}},
{"type":"Feature","geometry":{"type":"Point","coordinates":[9.48748213460812,44.4434543593654,0]},"properties":{"CODICESER":"NG2TOR1327002","DENOMSERB":"Serbatoio Morgallo basso","CODACQUED":"NG2TOR1327","ZSERBATOIO":853,"VOLUMUTILE":12,"QUOTMINESE":-999,"QUOTMAXESE":-999,"FUNZIOSER":"CO","TIPSERBAT":"SI","ANNOREAL":-999,"TIPFUNZION":"CO","TELECONTR":"N","STATOSERV":"S"}},
{"type":"Feature","geometry":{"type":"Point","coordinates":[9.48890546410259,44.4445744709614,0]},"properties":{"CODICESER":"NG2TOR1327003","DENOMSERB":"Serbatoio Morgallo alto","CODACQUED":"NG2TOR1327","ZSERBATOIO":882,"VOLUMUTILE":20,"QUOTMINESE":-999,"QUOTMAXESE":-999,"FUNZIOSER":"CO","TIPSERBAT":"SI","ANNOREAL":2000,"TIPFUNZION":"CO","TELECONTR":"N","STATOSERV":"S"}},
{"type":"Feature","geometry":{"type":"Point","coordinates":[9.4921955570071,44.4593828955528,0]},"properties":{"CODICESER":"NG2TOR1327004","DENOMSERB":"Serbatoio Diga di Santa Maria","CODACQUED":"NG2TOR1327","ZSERBATOIO":977,"VOLUMUTILE":4,"QUOTMINESE":-999,"QUOTMAXESE":-999,"FUNZIOSER":"CO","TIPSERBAT":"SI","ANNOREAL":2000,"TIPFUNZION":"CO","TELECONTR":"N","STATOSERV":"S"}},
{"type":"Feature","geometry":{"type":"Point","coordinates":[9.48418149461226,44.4555657354266,0]},"properties":{"CODICESER":"NG2TOR1312001","DENOMSERB":"Serbatoio Grondana II","CODACQUED":"NG2TOR1312","ZSERBATOIO":955,"VOLUMUTILE":30,"QUOTMINESE":-999,"QUOTMAXESE":-999,"FUNZIOSER":"CO","TIPSERBAT":"SI","ANNOREAL":1980,"TIPFUNZION":"CO","TELECONTR":"N","STATOSERV":"S"}},
{"type":"Feature","geometry":{"type":"Point","coordinates":[9.48684222881845,44.4559805462018,0]},"properties":{"CODICESER":"NG2TOR1312002","DENOMSERB":"Serbatoio Grondana I","CODACQUED":"NG2TOR1312","ZSERBATOIO":992.2,"VOLUMUTILE":1,"QUOTMINESE":-999,"QUOTMAXESE":-999,"FUNZIOSER":"CO","TIPSERBAT":"SI","ANNOREAL":1980,"TIPFUNZION":"CO","TELECONTR":"N","STATOSERV":"S"}},
{"type":"Feature","geometry":{"type":"Point","coordinates":[9.4808641232897,44.4518822934879,0]},"properties":{"CODICESER":"NG2TOR1315001","DENOMSERB":"Serbatoio Pianazzo","CODACQUED":"NG2TOR1315","ZSERBATOIO":854,"VOLUMUTILE":10,"QUOTMINESE":-999,"QUOTMAXESE":-999,"FUNZIOSER":"CO","TIPSERBAT":"SI","ANNOREAL":1980,"TIPFUNZION":"CO","TELECONTR":"N","STATOSERV":"S"}},
{"type":"Feature","geometry":{"type":"Point","coordinates":[9.46946248524436,44.4428306295864,0]},"properties":{"CODICESER":"NG2TOR1308001","DENOMSERB":"Serbatoio Casoni alto","CODACQUED":"NG2TOR1308","ZSERBATOIO":923,"VOLUMUTILE":2,"QUOTMINESE":-999,"QUOTMAXESE":-999,"FUNZIOSER":"CO","TIPSERBAT":"SI","ANNOREAL":1960,"TIPFUNZION":"CO","TELECONTR":"N","STATOSERV":"S"}},
{"type":"Feature","geometry":{"type":"Point","coordinates":[9.4738874571137,44.4404013159407,0]},"properties":{"CODICESER":"NG2TOR1308002","DENOMSERB":"Serbatoio Casoni","CODACQUED":"NG2TOR1308","ZSERBATOIO":911,"VOLUMUTILE":20,"QUOTMINESE":-999,"QUOTMAXESE":-999,"FUNZIOSER":"CO","TIPSERBAT":"SI","ANNOREAL":1980,"TIPFUNZION":"CO","TELECONTR":"N","STATOSERV":"S"}},
{"type":"Feature","geometry":{"type":"Point","coordinates":[9.61814822607564,44.4466645875764,0]},"properties":{"CODICESER":"NG2TOR1301001","DENOMSERB":"Serbatoio raccolta Prese di Iareto","CODACQUED":"NG2TOR1301","ZSERBATOIO":857,"VOLUMUTILE":2,"QUOTMINESE":-999,"QUOTMAXESE":-999,"FUNZIOSER":"CO","TIPSERBAT":"SI","ANNOREAL":1970,"TIPFUNZION":"CO","CODIMPSOL":"NG2TOR1301001","TELECONTR":"N","STATOSERV":"S"}},
{"type":"Feature","geometry":{"type":"Point","coordinates":[9.62020573790787,44.4595329843383,0]},"properties":{"CODICESER":"NG2TOR1303009","DENOMSERB":"Serbatoio Renerone 1","CODACQUED":"NG2TOR1303","ZSERBATOIO":853,"VOLUMUTILE":25,"QUOTMINESE":-999,"QUOTMAXESE":-999,"FUNZIOSER":"CO","TIPSERBAT":"SI","ANNOREAL":1970,"TIPFUNZION":"CO","TELECONTR":"N","STATOSERV":"S"}},
{"type":"Feature","geometry":{"type":"Point","coordinates":[9.62170025065102,44.4599583809592,0]},"properties":{"CODICESER":"NG2TOR1303010","DENOMSERB":"Serbatoio Renerone 2","CODACQUED":"NG2TOR1303","ZSERBATOIO":846,"VOLUMUTILE":25,"QUOTMINESE":-999,"QUOTMAXESE":-999,"FUNZIOSER":"CO","TIPSERBAT":"SI","ANNOREAL":1950,"TIPFUNZION":"CO","TELECONTR":"N","STATOSERV":"S"}},
{"type":"Feature","geometry":{"type":"Point","coordinates":[9.48657371840308,44.434318066598,0]},"properties":{"CODICESER":"NG2TOR1327005","DENOMSERB":"Serbatoio Sbarbori","CODACQUED":"NG2TOR1327","ZSERBATOIO":784,"VOLUMUTILE":90,"QUOTMINESE":-999,"QUOTMAXESE":-999,"FUNZIOSER":"CO","TIPSERBAT":"SI","ANNOREAL":1980,"TIPFUNZION":"CO","TELECONTR":"N","STATOSERV":"S"}},
{"type":"Feature","geometry":{"type":"Point","coordinates":[9.62626253484632,44.4855267035693,0]},"properties":{"CODICESER":"NG2TOR1300002","DENOMSERB":"Serbatoio Preilo 1","CODACQUED":"NG2TOR1300","ZSERBATOIO":612,"VOLUMUTILE":80,"QUOTMINESE":-999,"QUOTMAXESE":-999,"FUNZIOSER":"CO","TIPSERBAT":"SI","ANNOREAL":1950,"TIPFUNZION":"CO","TELECONTR":"N","STATOSERV":"S"}},
{"type":"Feature","geometry":{"type":"Point","coordinates":[9.62627125595201,44.485566412538,0]},"properties":{"CODICESER":"NG2TOR1300003","DENOMSERB":"Serbatoio Preilo 2","CODACQUED":"NG2TOR1300","ZSERBATOIO":612,"VOLUMUTILE":50,"QUOTMINESE":-999,"QUOTMAXESE":-999,"FUNZIOSER":"CO","TIPSERBAT":"SI","ANNOREAL":1970,"TIPFUNZION":"CO","TELECONTR":"N","STATOSERV":"S"}},
{"type":"Feature","geometry":{"type":"Point","coordinates":[9.6199579339717,44.4409600950659,0]},"properties":{"CODICESER":"NG2TOR1303011","DENOMSERB":"Serbatoio Goreto","CODACQUED":"NG2TOR1303","ZSERBATOIO":918,"VOLUMUTILE":3,"QUOTMINESE":-999,"QUOTMAXESE":-999,"FUNZIOSER":"CO","TIPSERBAT":"SI","ANNOREAL":2005,"TIPFUNZION":"CO","TELECONTR":"N","STATOSERV":"S"}},
{"type":"Feature","geometry":{"type":"Point","coordinates":[9.64607840131134,44.4567751971399,0]},"properties":{"CODICESER":"NG2TOR1303014","DENOMSERB":"Serbatoio Boresasco","CODACQUED":"NG2TOR1303","ZSERBATOIO":700,"VOLUMUTILE":2,"QUOTMINESE":-999,"QUOTMAXESE":-999,"FUNZIOSER":"CO","TIPSERBAT":"SI","ANNOREAL":1960,"TIPFUNZION":"CO","TELECONTR":"N","STATOSERV":"S"}},
{"type":"Feature","geometry":{"type":"Point","coordinates":[9.57361949282409,44.4532963584053,0]},"properties":{"CODICESER":"NG2TOR1314004","DENOMSERB":"Serbatoio Carmeli","CODACQUED":"NG2TOR1314","ZSERBATOIO":733,"VOLUMUTILE":20,"QUOTMINESE":-999,"QUOTMAXESE":-999,"FUNZIOSER":"CO","TIPSERBAT":"SI","ANNOREAL":1970,"TIPFUNZION":"CO","TELECONTR":"N","STATOSERV":"S"}},
{"type":"Feature","geometry":{"type":"Point","coordinates":[9.57048131907518,44.4709484529641,0]},"properties":{"CODICESER":"NG2BED0207001","DENOMSERB":"Bruschi soprani","CODACQUED":"NG2BED0207","ZSERBATOIO":-999,"VOLUMUTILE":16,"QUOTMINESE":-999,"QUOTMAXESE":-999,"FUNZIOSER":"CO","TIPSERBAT":"SI","ANNOREAL":1930,"TIPFUNZION":"CO","TELECONTR":"N","STATOSERV":"S"}},
{"type":"Feature","geometry":{"type":"Point","coordinates":[9.574398,44.4701970009431,0]},"properties":{"CODICESER":"NG2BED0208001","DENOMSERB":"Bruschi Sottani","CODACQUED":"NG2BED0208","ZSERBATOIO":-999,"VOLUMUTILE":63,"QUOTMINESE":-999,"QUOTMAXESE":-999,"FUNZIOSER":"CO","TIPSERBAT":"SI","ANNOREAL":1985,"TIPFUNZION":"CO","TELECONTR":"N","STATOSERV":"S"}},
{"type":"Feature","geometry":{"type":"Point","coordinates":[9.56016707718893,44.474822338641,0]},"properties":{"CODICESER":"NG2BED0204001","DENOMSERB":"Alpe basso","CODACQUED":"NG2BED0204","ZSERBATOIO":-999,"VOLUMUTILE":20,"QUOTMINESE":-999,"QUOTMAXESE":-999,"FUNZIOSER":"CO","TIPSERBAT":"SI","ANNOREAL":1985,"TIPFUNZION":"CO","TELECONTR":"N","STATOSERV":"S"}},
{"type":"Feature","geometry":{"type":"Point","coordinates":[9.54831445960964,44.4855294993997,0]},"properties":{"CODICESER":"NG2BED0204002","DENOMSERB":"Alpe alta","CODACQUED":"NG2BED0204","ZSERBATOIO":-999,"VOLUMUTILE":3,"QUOTMINESE":-999,"QUOTMAXESE":-999,"FUNZIOSER":"CO","TIPSERBAT":"SI","ANNOREAL":1985,"TIPFUNZION":"CO","TELECONTR":"N","STATOSERV":"S"}},
{"type":"Feature","geometry":{"type":"Point","coordinates":[9.561869,44.4730060009431,0]},"properties":{"CODICESER":"NG2BED0205001","DENOMSERB":"U tu","CODACQUED":"NG2BED0205","ZSERBATOIO":-999,"VOLUMUTILE":10,"QUOTMINESE":-999,"QUOTMAXESE":-999,"FUNZIOSER":"CO","TIPSERBAT":"SI","ANNOREAL":1950,"TIPFUNZION":"CO","TELECONTR":"N","STATOSERV":"S"}},
{"type":"Feature","geometry":{"type":"Point","coordinates":[9.55880042467495,44.462889689717,0]},"properties":{"CODICESER":"NG2BED0205002","DENOMSERB":"Moschi","CODACQUED":"NG2BED0205","ZSERBATOIO":-999,"VOLUMUTILE":8,"QUOTMINESE":-999,"QUOTMAXESE":-999,"FUNZIOSER":"CO","TIPSERBAT":"SI","ANNOREAL":-999,"TIPFUNZION":"CO","TELECONTR":"N","STATOSERV":"S"}},
{"type":"Feature","geometry":{"type":"Point","coordinates":[9.55300367661116,44.4498019752633,0]},"properties":{"CODICESER":"NG2BED0214001","DENOMSERB":"Casonetti","CODACQUED":"NG2BED0214","ZSERBATOIO":-999,"VOLUMUTILE":10,"QUOTMINESE":-999,"QUOTMAXESE":-999,"FUNZIOSER":"CO","TIPSERBAT":"SI","ANNOREAL":1970,"TIPFUNZION":"CO","TELECONTR":"N","STATOSERV":"S"}},
{"type":"Feature","geometry":{"type":"Point","coordinates":[9.53975546507102,44.4524740729676,0]},"properties":{"CODICESER":"NG2BED0244001","DENOMSERB":"Strepeto alto","CODACQUED":"NG2BED0244","ZSERBATOIO":-999,"VOLUMUTILE":5,"QUOTMINESE":-999,"QUOTMAXESE":-999,"FUNZIOSER":"CO","TIPSERBAT":"SI","ANNOREAL":-999,"TIPFUNZION":"CO","TELECONTR":"N","STATOSERV":"S"}},
{"type":"Feature","geometry":{"type":"Point","coordinates":[9.54935957243717,44.4542186193831,0]},"properties":{"CODICESER":"NG2BED0244002","DENOMSERB":"Strepeto","CODACQUED":"NG2BED0244","ZSERBATOIO":30,"VOLUMUTILE":6,"QUOTMINESE":-999,"QUOTMAXESE":-999,"FUNZIOSER":"CO","TIPSERBAT":"SI","ANNOREAL":1975,"TIPFUNZION":"CO","TELECONTR":"N","STATOSERV":"S"}},
{"type":"Feature","geometry":{"type":"Point","coordinates":[9.54457167670386,44.4601278435371,0]},"properties":{"CODICESER":"NG2BED0242001","DENOMSERB":"Setterone","CODACQUED":"NG2BED0242","ZSERBATOIO":-999,"VOLUMUTILE":20,"QUOTMINESE":-999,"QUOTMAXESE":-999,"FUNZIOSER":"CO","TIPSERBAT":"SI","ANNOREAL":1930,"TIPFUNZION":"CO","TELECONTR":"N","STATOSERV":"S"}},
{"type":"Feature","geometry":{"type":"Point","coordinates":[9.54210229022043,44.4760382663087,0]},"properties":{"CODICESER":"NG2BED0233001","DENOMSERB":"Lavai","CODACQUED":"NG2BED0233","ZSERBATOIO":-999,"VOLUMUTILE":15,"QUOTMINESE":-999,"QUOTMAXESE":-999,"FUNZIOSER":"CO","TIPSERBAT":"SI","ANNOREAL":1975,"TIPFUNZION":"CO","TELECONTR":"N","STATOSERV":"S"}},
{"type":"Feature","geometry":{"type":"Point","coordinates":[9.54342377288576,44.4732345068129,0]},"properties":{"CODICESER":"NG2BED0233002","DENOMSERB":"Perini","CODACQUED":"NG2BED0233","ZSERBATOIO":-999,"VOLUMUTILE":15,"QUOTMINESE":-999,"QUOTMAXESE":-999,"FUNZIOSER":"CO","TIPSERBAT":"SI","ANNOREAL":1995,"TIPFUNZION":"CO","TELECONTR":"N","STATOSERV":"S"}},
{"type":"Feature","geometry":{"type":"Point","coordinates":[9.52266473319948,44.508480977283,0]},"properties":{"CODICESER":"NG2BED0238001","DENOMSERB":"Romezzano","CODACQUED":"NG2BED0238","ZSERBATOIO":-999,"VOLUMUTILE":30,"QUOTMINESE":-999,"QUOTMAXESE":-999,"FUNZIOSER":"CO","TIPSERBAT":"SI","ANNOREAL":1930,"TIPFUNZION":"CO","TELECONTR":"N","STATOSERV":"S"}},
{"type":"Feature","geometry":{"type":"Point","coordinates":[9.54524240084956,44.5047375214792,0]},"properties":{"CODICESER":"NG2BED0243001","DENOMSERB":"Spora","CODACQUED":"NG2BED0243","ZSERBATOIO":-999,"VOLUMUTILE":20,"QUOTMINESE":-999,"QUOTMAXESE":-999,"FUNZIOSER":"CO","TIPSERBAT":"SI","ANNOREAL":1970,"TIPFUNZION":"CO","TELECONTR":"N","STATOSERV":"S"}},
{"type":"Feature","geometry":{"type":"Point","coordinates":[9.54090938150246,44.5158928788848,0]},"properties":{"CODICESER":"NG2BED0206001","DENOMSERB":"Galere","CODACQUED":"NG2BED0206","ZSERBATOIO":-999,"VOLUMUTILE":20,"QUOTMINESE":-999,"QUOTMAXESE":-999,"FUNZIOSER":"CO","TIPSERBAT":"SI","ANNOREAL":1980,"TIPFUNZION":"CO","TELECONTR":"N","STATOSERV":"S"}},
{"type":"Feature","geometry":{"type":"Point","coordinates":[9.55866177090705,44.5442240793627,0]},"properties":{"CODICESER":"NG2BED0219001","DENOMSERB":"Drusco prese","CODACQUED":"NG2BED0219","ZSERBATOIO":1007,"VOLUMUTILE":5,"QUOTMINESE":-999,"QUOTMAXESE":-999,"FUNZIOSER":"CO","TIPSERBAT":"SI","ANNOREAL":1950,"TIPFUNZION":"CO","TELECONTR":"N","STATOSERV":"S"}},
{"type":"Feature","geometry":{"type":"Point","coordinates":[9.55541514434853,44.5415949921586,0]},"properties":{"CODICESER":"NG2BED0219002","DENOMSERB":"Drusco paese","CODACQUED":"NG2BED0219","ZSERBATOIO":964,"VOLUMUTILE":15,"QUOTMINESE":-999,"QUOTMAXESE":-999,"FUNZIOSER":"CO","TIPSERBAT":"SI","ANNOREAL":1975,"TIPFUNZION":"CO","TELECONTR":"N","STATOSERV":"S"}},
{"type":"Feature","geometry":{"type":"Point","coordinates":[9.56186737910605,44.572021222515,0]},"properties":{"CODICESER":"NG2BED0218001","DENOMSERB":"Cornolo","CODACQUED":"NG2BED0218","ZSERBATOIO":1045,"VOLUMUTILE":30,"QUOTMINESE":-999,"QUOTMAXESE":-999,"FUNZIOSER":"CO","TIPSERBAT":"SI","ANNOREAL":1930,"TIPFUNZION":"CO","TELECONTR":"N","STATOSERV":"S"}},
{"type":"Feature","geometry":{"type":"Point","coordinates":[9.555365,44.5810610009431,0]},"properties":{"CODICESER":"NG2BED0218002","DENOMSERB":"Cornolo prese","CODACQUED":"NG2BED0218","ZSERBATOIO":1293,"VOLUMUTILE":3,"QUOTMINESE":-999,"QUOTMAXESE":-999,"FUNZIOSER":"CO","TIPSERBAT":"SI","ANNOREAL":1940,"TIPFUNZION":"CO","TELECONTR":"N","STATOSERV":"S"}},
{"type":"Feature","geometry":{"type":"Point","coordinates":[9.603831,44.5643640009431,0]},"properties":{"CODICESER":"NG2BED0246001","DENOMSERB":"Libbia di Casaleto","CODACQUED":"NG2BED0246","ZSERBATOIO":-999,"VOLUMUTILE":10,"QUOTMINESE":-999,"QUOTMAXESE":-999,"FUNZIOSER":"CO","TIPSERBAT":"SI","ANNOREAL":1930,"TIPFUNZION":"CO","TELECONTR":"N","STATOSERV":"S"}},
{"type":"Feature","geometry":{"type":"Point","coordinates":[9.60369643500425,44.5691071536546,0]},"properties":{"CODICESER":"NG2BED0224001","DENOMSERB":"Illica","CODACQUED":"NG2BED0224","ZSERBATOIO":937,"VOLUMUTILE":15,"QUOTMINESE":-999,"QUOTMAXESE":-999,"FUNZIOSER":"CO","TIPSERBAT":"SI","ANNOREAL":1930,"TIPFUNZION":"CO","TELECONTR":"N","STATOSERV":"S"}},
{"type":"Feature","geometry":{"type":"Point","coordinates":[9.633331,44.5817230009431,0]},"properties":{"CODICESER":"NG2BED0213001","DENOMSERB":"Casale di Illica","CODACQUED":"NG2BED0213","ZSERBATOIO":707,"VOLUMUTILE":5,"QUOTMINESE":-999,"QUOTMAXESE":-999,"FUNZIOSER":"CO","TIPSERBAT":"SI","ANNOREAL":1945,"TIPFUNZION":"CO","TELECONTR":"N","STATOSERV":"S"}},
{"type":"Feature","geometry":{"type":"Point","coordinates":[9.637811,44.5943720009432,0]},"properties":{"CODICESER":"NG2BED0236001","DENOMSERB":"Pomte Lecca","CODACQUED":"NG2BED0236","ZSERBATOIO":-999,"VOLUMUTILE":3,"QUOTMINESE":-999,"QUOTMAXESE":-999,"FUNZIOSER":"CO","TIPSERBAT":"SI","ANNOREAL":-999,"TIPFUNZION":"CO","TELECONTR":"N","STATOSERV":"S"}},
{"type":"Feature","geometry":{"type":"Point","coordinates":[9.649056,44.5527890009431,0]},"properties":{"CODICESER":"NG2BED0239001","DENOMSERB":"Pilati prese","CODACQUED":"NG2BED0239","ZSERBATOIO":1995,"VOLUMUTILE":10,"QUOTMINESE":-999,"QUOTMAXESE":-999,"FUNZIOSER":"CO","TIPSERBAT":"SI","ANNOREAL":1950,"TIPFUNZION":"CO","TELECONTR":"N","STATOSERV":"S"}},
{"type":"Feature","geometry":{"type":"Point","coordinates":[9.65526668109305,44.5938396610921,0]},"properties":{"CODICESER":"NG2BED0239002","DENOMSERB":"Pilati","CODACQUED":"NG2BED0239","ZSERBATOIO":910,"VOLUMUTILE":20,"QUOTMINESE":-999,"QUOTMAXESE":-999,"FUNZIOSER":"CO","TIPSERBAT":"SI","ANNOREAL":1960,"TIPFUNZION":"CO","TELECONTR":"N","STATOSERV":"S"}},
{"type":"Feature","geometry":{"type":"Point","coordinates":[9.65142263617618,44.5922457484952,0]},"properties":{"CODICESER":"NG2BED0239003","DENOMSERB":"Scopolo","CODACQUED":"NG2BED0239","ZSERBATOIO":842,"VOLUMUTILE":2,"QUOTMINESE":-999,"QUOTMAXESE":-999,"FUNZIOSER":"CO","TIPSERBAT":"SI","ANNOREAL":1960,"TIPFUNZION":"CO","TELECONTR":"N","STATOSERV":"S"}},
{"type":"Feature","geometry":{"type":"Point","coordinates":[9.62662786679,44.564512009074,0]},"properties":{"CODICESER":"NG2BED0226001","DENOMSERB":"Masanti","CODACQUED":"NG2BED0226","ZSERBATOIO":-999,"VOLUMUTILE":20,"QUOTMINESE":-999,"QUOTMAXESE":-999,"FUNZIOSER":"CO","TIPSERBAT":"SI","ANNOREAL":1930,"TIPFUNZION":"CO","TELECONTR":"N","STATOSERV":"S"}},
{"type":"Feature","geometry":{"type":"Point","coordinates":[9.64115011924217,44.5290988528958,0]},"properties":{"CODICESER":"NG2BED0231001","DENOMSERB":"Monti","CODACQUED":"NG2BED0231","ZSERBATOIO":-999,"VOLUMUTILE":20,"QUOTMINESE":-999,"QUOTMAXESE":-999,"FUNZIOSER":"CO","TIPSERBAT":"SI","ANNOREAL":1930,"TIPFUNZION":"CO","TELECONTR":"N","STATOSERV":"S"}},
{"type":"Feature","geometry":{"type":"Point","coordinates":[9.63634432913855,44.5252947842573,0]},"properties":{"CODICESER":"NG2BED0200006","DENOMSERB":"Ceio","CODACQUED":"NG2BED0200","ZSERBATOIO":-999,"VOLUMUTILE":20,"QUOTMINESE":-999,"QUOTMAXESE":-999,"FUNZIOSER":"CO","TIPSERBAT":"SI","ANNOREAL":1950,"TIPFUNZION":"CO","TELECONTR":"N","STATOSERV":"S"}},
{"type":"Feature","geometry":{"type":"Point","coordinates":[9.63531508748683,44.5152895233067,0]},"properties":{"CODICESER":"NG2BED0200002","DENOMSERB":"Casello","CODACQUED":"NG2BED0200","ZSERBATOIO":-999,"VOLUMUTILE":30,"QUOTMINESE":-999,"QUOTMAXESE":-999,"FUNZIOSER":"CO","TIPSERBAT":"IN","ANNOREAL":1910,"TIPFUNZION":"CO","TELECONTR":"N","STATOSERV":"S"}},
{"type":"Feature","geometry":{"type":"Point","coordinates":[9.63307569506544,44.5184547856705,0]},"properties":{"CODICESER":"NG2BED0200010","DENOMSERB":"Merelli","CODACQUED":"NG2BED0200","ZSERBATOIO":-999,"VOLUMUTILE":5,"QUOTMINESE":-999,"QUOTMAXESE":-999,"FUNZIOSER":"CO","TIPSERBAT":"IN","ANNOREAL":1950,"TIPFUNZION":"CO","TELECONTR":"N","STATOSERV":"S"}},
{"type":"Feature","geometry":{"type":"Point","coordinates":[9.63376,44.5194230009431,0]},"properties":{"CODICESER":"NG2BED0200013","DENOMSERB":"Casello","CODACQUED":"NG2BED0200","ZSERBATOIO":-999,"VOLUMUTILE":30,"QUOTMINESE":-999,"QUOTMAXESE":-999,"FUNZIOSER":"CO","TIPSERBAT":"IN","ANNOREAL":1910,"TIPFUNZION":"CO","TELECONTR":"N","STATOSERV":"S"}},
{"type":"Feature","geometry":{"type":"Point","coordinates":[9.63045958456621,44.5289553921474,0]},"properties":{"CODICESER":"NG2BED0225001","DENOMSERB":"Libbia","CODACQUED":"NG2BED0225","ZSERBATOIO":-999,"VOLUMUTILE":20,"QUOTMINESE":-999,"QUOTMAXESE":-999,"FUNZIOSER":"CO","TIPSERBAT":"SI","ANNOREAL":1960,"TIPFUNZION":"CO","TELECONTR":"N","STATOSERV":"S"}},
{"type":"Feature","geometry":{"type":"Point","coordinates":[9.63002175662762,44.5257471246225,0]},"properties":{"CODICESER":"NG2BED0200009","DENOMSERB":"Libbia Castagna Casello","CODACQUED":"NG2BED0200","ZSERBATOIO":-999,"VOLUMUTILE":20,"QUOTMINESE":-999,"QUOTMAXESE":-999,"FUNZIOSER":"CO","TIPSERBAT":"SI","ANNOREAL":1990,"TIPFUNZION":"CO","TELECONTR":"N","STATOSERV":"S"}},
{"type":"Feature","geometry":{"type":"Point","coordinates":[9.63389275518347,44.5212247358899,0]},"properties":{"CODICESER":"NG2BED0200012","DENOMSERB":"San Marco","CODACQUED":"NG2BED0200","ZSERBATOIO":-999,"VOLUMUTILE":35,"QUOTMINESE":-999,"QUOTMAXESE":-999,"FUNZIOSER":"CO","TIPSERBAT":"SI","ANNOREAL":1970,"TIPFUNZION":"CO","TELECONTR":"N","STATOSERV":"S"}},
{"type":"Feature","geometry":{"type":"Point","coordinates":[9.62422618610625,44.5304878127066,0]},"properties":{"CODICESER":"NG2BED0237001","DENOMSERB":"Prato Coste","CODACQUED":"NG2BED0237","ZSERBATOIO":-999,"VOLUMUTILE":15,"QUOTMINESE":-999,"QUOTMAXESE":-999,"FUNZIOSER":"CO","TIPSERBAT":"SI","ANNOREAL":1930,"TIPFUNZION":"CO","TELECONTR":"N","STATOSERV":"S"}},
{"type":"Feature","geometry":{"type":"Point","coordinates":[9.62234807158479,44.5357802517453,0]},"properties":{"CODICESER":"NG2BED0237002","DENOMSERB":"Lavaio","CODACQUED":"NG2BED0237","ZSERBATOIO":-999,"VOLUMUTILE":5,"QUOTMINESE":-999,"QUOTMAXESE":-999,"FUNZIOSER":"CO","TIPSERBAT":"SI","ANNOREAL":1970,"TIPFUNZION":"CO","TELECONTR":"N","STATOSERV":"S"}},
{"type":"Feature","geometry":{"type":"Point","coordinates":[9.61265422749517,44.5352895373068,0]},"properties":{"CODICESER":"NG2BED0230001","DENOMSERB":"Monte Vaccà","CODACQUED":"NG2BED0230","ZSERBATOIO":-999,"VOLUMUTILE":20,"QUOTMINESE":-999,"QUOTMAXESE":-999,"FUNZIOSER":"CO","TIPSERBAT":"SI","ANNOREAL":1980,"TIPFUNZION":"CO","TELECONTR":"N","STATOSERV":"S"}},
{"type":"Feature","geometry":{"type":"Point","coordinates":[9.58845911433105,44.5507113343141,0]},"properties":{"CODICESER":"NG2BED0221001","DENOMSERB":"Fontanachiosa","CODACQUED":"NG2BED0221","ZSERBATOIO":-999,"VOLUMUTILE":20,"QUOTMINESE":-999,"QUOTMAXESE":-999,"FUNZIOSER":"CO","TIPSERBAT":"SI","ANNOREAL":1980,"TIPFUNZION":"CO","TELECONTR":"N","STATOSERV":"S"}},
{"type":"Feature","geometry":{"type":"Point","coordinates":[9.58379090624333,44.543445462777,0]},"properties":{"CODICESER":"NG2BED0222001","DENOMSERB":"Fontanino","CODACQUED":"NG2BED0222","ZSERBATOIO":-999,"VOLUMUTILE":10,"QUOTMINESE":-999,"QUOTMAXESE":-999,"FUNZIOSER":"CO","TIPSERBAT":"SI","ANNOREAL":1980,"TIPFUNZION":"CO","TELECONTR":"N","STATOSERV":"S"}},
{"type":"Feature","geometry":{"type":"Point","coordinates":[9.59093691355472,44.5396438348922,0]},"properties":{"CODICESER":"NG2BED0222002","DENOMSERB":"Calice Rigattola","CODACQUED":"NG2BED0222","ZSERBATOIO":18,"VOLUMUTILE":10,"QUOTMINESE":-999,"QUOTMAXESE":-999,"FUNZIOSER":"CO","TIPSERBAT":"SI","ANNOREAL":1970,"TIPFUNZION":"CO","TELECONTR":"N","STATOSERV":"S"}},
{"type":"Feature","geometry":{"type":"Point","coordinates":[9.57964807689824,44.5446991720372,0]},"properties":{"CODICESER":"NG2BED0209001","DENOMSERB":"Calice alto","CODACQUED":"NG2BED0209","ZSERBATOIO":-999,"VOLUMUTILE":5,"QUOTMINESE":-999,"QUOTMAXESE":-999,"FUNZIOSER":"CO","TIPSERBAT":"SI","ANNOREAL":1950,"TIPFUNZION":"CO","TELECONTR":"N","STATOSERV":"S"}},
{"type":"Feature","geometry":{"type":"Point","coordinates":[9.58248143200688,44.5399180498387,0]},"properties":{"CODICESER":"NG2BED0209002","DENOMSERB":"Calice bassa","CODACQUED":"NG2BED0209","ZSERBATOIO":-999,"VOLUMUTILE":15,"QUOTMINESE":-999,"QUOTMAXESE":-999,"FUNZIOSER":"CO","TIPSERBAT":"SI","ANNOREAL":1960,"TIPFUNZION":"CO","TELECONTR":"N","STATOSERV":"S"}},
{"type":"Feature","geometry":{"type":"Point","coordinates":[9.60854567735861,44.4785489436074,0]},"properties":{"CODICESER":"NG2BED0234001","DENOMSERB":"Piane di Carniglia","CODACQUED":"NG2BED0234","ZSERBATOIO":-999,"VOLUMUTILE":25,"QUOTMINESE":-999,"QUOTMAXESE":-999,"FUNZIOSER":"CO","TIPSERBAT":"SI","ANNOREAL":1985,"TIPFUNZION":"CO","TELECONTR":"N","STATOSERV":"S"}},
{"type":"Feature","geometry":{"type":"Point","coordinates":[9.5796466056531,44.5128788606569,0]},"properties":{"CODICESER":"NG2BED0228001","DENOMSERB":"Ca di Boso","CODACQUED":"NG2BED0228","ZSERBATOIO":-999,"VOLUMUTILE":5,"QUOTMINESE":-999,"QUOTMAXESE":-999,"FUNZIOSER":"CO","TIPSERBAT":"SI","ANNOREAL":1937,"TIPFUNZION":"CO","TELECONTR":"N","STATOSERV":"S"}},
{"type":"Feature","geometry":{"type":"Point","coordinates":[9.58491113899085,44.5175180033946,0]},"properties":{"CODICESER":"NG2BED0240001","DENOMSERB":"Segarino","CODACQUED":"NG2BED0240","ZSERBATOIO":-999,"VOLUMUTILE":20,"QUOTMINESE":-999,"QUOTMAXESE":-999,"FUNZIOSER":"CO","TIPSERBAT":"SI","ANNOREAL":1980,"TIPFUNZION":"CO","CODIMPSOL":"NG2BED0240001","TELECONTR":"N","STATOSERV":"S"}},
{"type":"Feature","geometry":{"type":"Point","coordinates":[9.58330329266304,44.5122031923324,0]},"properties":{"CODICESER":"NG2BED0229001","DENOMSERB":"Montarsiccio","CODACQUED":"NG2BED0229","ZSERBATOIO":-999,"VOLUMUTILE":15,"QUOTMINESE":-999,"QUOTMAXESE":-999,"FUNZIOSER":"CO","TIPSERBAT":"SI","ANNOREAL":1930,"TIPFUNZION":"CO","TELECONTR":"N","STATOSERV":"S"}},
{"type":"Feature","geometry":{"type":"Point","coordinates":[9.59985065493847,44.5086168888013,0]},"properties":{"CODICESER":"NG2BED0228002","DENOMSERB":"Momarola","CODACQUED":"NG2BED0228","ZSERBATOIO":-999,"VOLUMUTILE":15,"QUOTMINESE":-999,"QUOTMAXESE":-999,"FUNZIOSER":"CO","TIPSERBAT":"SI","ANNOREAL":1930,"TIPFUNZION":"CO","TELECONTR":"N","STATOSERV":"S"}},
{"type":"Feature","geometry":{"type":"Point","coordinates":[9.60790856744447,44.5120230251558,0]},"properties":{"CODICESER":"NG2BED0215002","DENOMSERB":"Catagnola","CODACQUED":"NG2BED0215","ZSERBATOIO":-999,"VOLUMUTILE":10,"QUOTMINESE":-999,"QUOTMAXESE":-999,"FUNZIOSER":"CO","TIPSERBAT":"SI","ANNOREAL":1960,"TIPFUNZION":"CO","TELECONTR":"N","STATOSERV":"S"}},
{"type":"Feature","geometry":{"type":"Point","coordinates":[9.604748,44.5116660009431,0]},"properties":{"CODICESER":"NG2BED0215003","DENOMSERB":"Castagnola","CODACQUED":"NG2BED0215","ZSERBATOIO":593,"VOLUMUTILE":3,"QUOTMINESE":-999,"QUOTMAXESE":-999,"FUNZIOSER":"CO","TIPSERBAT":"SI","ANNOREAL":1956,"TIPFUNZION":"CO","TELECONTR":"N","STATOSERV":"S"}},
{"type":"Feature","geometry":{"type":"Point","coordinates":[9.61900053766809,44.508048431002,0]},"properties":{"CODICESER":"NG2BED0200003","DENOMSERB":"Castagnola vecchia","CODACQUED":"NG2BED0200","ZSERBATOIO":-999,"VOLUMUTILE":15,"QUOTMINESE":-999,"QUOTMAXESE":-999,"FUNZIOSER":"CO","TIPSERBAT":"SI","ANNOREAL":1950,"TIPFUNZION":"CO","TELECONTR":"N","STATOSERV":"S"}},
{"type":"Feature","geometry":{"type":"Point","coordinates":[9.6190341097714,44.5080125195245,0]},"properties":{"CODICESER":"NG2BED0200004","DENOMSERB":"Castellaro","CODACQUED":"NG2BED0200","ZSERBATOIO":-999,"VOLUMUTILE":30,"QUOTMINESE":-999,"QUOTMAXESE":-999,"FUNZIOSER":"CO","TIPSERBAT":"SI","ANNOREAL":1999,"TIPFUNZION":"CO","TELECONTR":"N","STATOSERV":"S"}},
{"type":"Feature","geometry":{"type":"Point","coordinates":[9.610504,44.5239950009431,0]},"properties":{"CODICESER":"NG2BED0200014","DENOMSERB":"Bossi","CODACQUED":"NG2BED0200","ZSERBATOIO":-999,"VOLUMUTILE":5,"QUOTMINESE":-999,"QUOTMAXESE":-999,"FUNZIOSER":"CO","TIPSERBAT":"SI","ANNOREAL":1985,"TIPFUNZION":"CO","TELECONTR":"N","STATOSERV":"S"}},
{"type":"Feature","geometry":{"type":"Point","coordinates":[9.609388,44.5224270009431,0]},"properties":{"CODICESER":"NG2BED0200015","DENOMSERB":"Bossi 2","CODACQUED":"NG2BED0200","ZSERBATOIO":-999,"VOLUMUTILE":4,"QUOTMINESE":-999,"QUOTMAXESE":-999,"FUNZIOSER":"CO","TIPSERBAT":"SI","ANNOREAL":1950,"TIPFUNZION":"CO","TELECONTR":"N","STATOSERV":"S"}},
{"type":"Feature","geometry":{"type":"Point","coordinates":[9.62665064968684,44.4983980968269,0]},"properties":{"CODICESER":"NG2BED0200001","DENOMSERB":"Bivio montarsiccio","CODACQUED":"NG2BED0200","ZSERBATOIO":-999,"VOLUMUTILE":30,"QUOTMINESE":-999,"QUOTMAXESE":-999,"FUNZIOSER":"CO","TIPSERBAT":"SI","ANNOREAL":1950,"TIPFUNZION":"CO","TELECONTR":"N","STATOSERV":"S"}},
{"type":"Feature","geometry":{"type":"Point","coordinates":[9.65036188094172,44.5191949160009,0]},"properties":{"CODICESER":"NG2BED0216001","DENOMSERB":"Cavignaga","CODACQUED":"NG2BED0216","ZSERBATOIO":-999,"VOLUMUTILE":30,"QUOTMINESE":-999,"QUOTMAXESE":-999,"FUNZIOSER":"CO","TIPSERBAT":"SI","ANNOREAL":1970,"TIPFUNZION":"CO","TELECONTR":"N","STATOSERV":"S"}},
{"type":"Feature","geometry":{"type":"Point","coordinates":[9.64245207718401,44.5159191066192,0]},"properties":{"CODICESER":"NG2BED0200005","DENOMSERB":"Cavignaga basso","CODACQUED":"NG2BED0200","ZSERBATOIO":-999,"VOLUMUTILE":3,"QUOTMINESE":-999,"QUOTMAXESE":-999,"FUNZIOSER":"CO","TIPSERBAT":"SI","ANNOREAL":1980,"TIPFUNZION":"CO","TELECONTR":"N","STATOSERV":"S"}},
{"type":"Feature","geometry":{"type":"Point","coordinates":[9.61723400789702,44.4988514698395,0]},"properties":{"CODICESER":"NG2BED0200008","DENOMSERB":"Da Zucca","CODACQUED":"NG2BED0200","ZSERBATOIO":-999,"VOLUMUTILE":30,"QUOTMINESE":-999,"QUOTMAXESE":-999,"FUNZIOSER":"CO","TIPSERBAT":"SI","ANNOREAL":1960,"TIPFUNZION":"CO","TELECONTR":"N","STATOSERV":"S"}},
{"type":"Feature","geometry":{"type":"Point","coordinates":[9.65002899057523,44.4980841200723,0]},"properties":{"CODICESER":"NG2BED0216002","DENOMSERB":"Della serra","CODACQUED":"NG2BED0216","ZSERBATOIO":-999,"VOLUMUTILE":25,"QUOTMINESE":-999,"QUOTMAXESE":-999,"FUNZIOSER":"CO","TIPSERBAT":"SI","ANNOREAL":1980,"TIPFUNZION":"CO","TELECONTR":"N","STATOSERV":"S"}},
{"type":"Feature","geometry":{"type":"Point","coordinates":[9.57121726333241,44.5209672600518,0]},"properties":{"CODICESER":"NG2BED0245001","DENOMSERB":"Tomba","CODACQUED":"NG2BED0245","ZSERBATOIO":-999,"VOLUMUTILE":20,"QUOTMINESE":-999,"QUOTMAXESE":-999,"FUNZIOSER":"CO","TIPSERBAT":"SI","ANNOREAL":1930,"TIPFUNZION":"CO","CODIMPSOL":"NG2BED0245001","TELECONTR":"N","STATOSERV":"S"}},
{"type":"Feature","geometry":{"type":"Point","coordinates":[9.56870933020257,44.5220102127283,0]},"properties":{"CODICESER":"NG2BED0245002","DENOMSERB":"Toma bassa","CODACQUED":"NG2BED0245","ZSERBATOIO":-999,"VOLUMUTILE":10,"QUOTMINESE":-999,"QUOTMAXESE":-999,"FUNZIOSER":"CO","TIPSERBAT":"SI","ANNOREAL":1970,"TIPFUNZION":"CO","TELECONTR":"N","STATOSERV":"S"}},
{"type":"Feature","geometry":{"type":"Point","coordinates":[9.56094122200089,44.5210043804709,0]},"properties":{"CODICESER":"NG2BED0223001","DENOMSERB":"Fornolo Chiesola","CODACQUED":"NG2BED0223","ZSERBATOIO":-999,"VOLUMUTILE":20,"QUOTMINESE":-999,"QUOTMAXESE":-999,"FUNZIOSER":"CO","TIPSERBAT":"SI","ANNOREAL":1930,"TIPFUNZION":"CO","TELECONTR":"N","STATOSERV":"S"}},
{"type":"Feature","geometry":{"type":"Point","coordinates":[9.57538914491669,44.4898500283961,0]},"properties":{"CODICESER":"NG2BED0210001","DENOMSERB":"Carniglia","CODACQUED":"NG2BED0210","ZSERBATOIO":-999,"VOLUMUTILE":30,"QUOTMINESE":-999,"QUOTMAXESE":-999,"FUNZIOSER":"CO","TIPSERBAT":"IN","ANNOREAL":1930,"TIPFUNZION":"CO","TELECONTR":"N","STATOSERV":"S"}},
{"type":"Feature","geometry":{"type":"Point","coordinates":[9.58677751523902,44.4914393830233,0]},"properties":{"CODICESER":"NG2BED0210002","DENOMSERB":"Pozza","CODACQUED":"NG2BED0210","ZSERBATOIO":-999,"VOLUMUTILE":5,"QUOTMINESE":-999,"QUOTMAXESE":-999,"FUNZIOSER":"CO","TIPSERBAT":"SI","ANNOREAL":1980,"TIPFUNZION":"CO","TELECONTR":"N","STATOSERV":"S"}},
{"type":"Feature","geometry":{"type":"Point","coordinates":[9.59994169560208,44.4883907442786,0]},"properties":{"CODICESER":"NG2BED0210003","DENOMSERB":"Case Mazzadi","CODACQUED":"NG2BED0210","ZSERBATOIO":-999,"VOLUMUTILE":30,"QUOTMINESE":-999,"QUOTMAXESE":-999,"FUNZIOSER":"CO","TIPSERBAT":"SI","ANNOREAL":1940,"TIPFUNZION":"CO","TELECONTR":"N","STATOSERV":"S"}},
{"type":"Feature","geometry":{"type":"Point","coordinates":[9.59757044092812,44.488759916018,0]},"properties":{"CODICESER":"NG2BED0210004","DENOMSERB":"Case Maestri","CODACQUED":"NG2BED0210","ZSERBATOIO":-999,"VOLUMUTILE":20,"QUOTMINESE":-999,"QUOTMAXESE":-999,"FUNZIOSER":"CO","TIPSERBAT":"SI","ANNOREAL":1980,"TIPFUNZION":"CO","TELECONTR":"N","STATOSERV":"S"}},
{"type":"Feature","geometry":{"type":"Point","coordinates":[9.61032031969654,44.4910895938016,0]},"properties":{"CODICESER":"NG2BED0210005","DENOMSERB":"Ca Cabanino","CODACQUED":"NG2BED0210","ZSERBATOIO":-999,"VOLUMUTILE":15,"QUOTMINESE":-999,"QUOTMAXESE":-999,"FUNZIOSER":"CO","TIPSERBAT":"SI","ANNOREAL":1980,"TIPFUNZION":"CO","TELECONTR":"N","STATOSERV":"S"}},
{"type":"Feature","geometry":{"type":"Point","coordinates":[9.83644310872048,44.6457929062349,0]},"properties":{"CODICESER":"NG2VAR1012001","DENOMSERB":"La Piastra","CODACQUED":"NG2VAR1012","ZSERBATOIO":717,"VOLUMUTILE":3,"QUOTMINESE":-999,"QUOTMAXESE":-999,"FUNZIOSER":"CO","TIPSERBAT":"SI","ANNOREAL":-999,"TIPFUNZION":"CO","CODIMPSOL":"NG2VAR1021001","TELECONTR":"N","STATOSERV":"S"}},
{"type":"Feature","geometry":{"type":"Point","coordinates":[9.89963421181729,44.6464885118251,0]},"properties":{"CODICESER":"NG2VAR1005001","DENOMSERB":"Sgui-La Colla","CODACQUED":"NG2VAR1005","ZSERBATOIO":810,"VOLUMUTILE":12,"QUOTMINESE":-999,"QUOTMAXESE":-999,"FUNZIOSER":"CO","TIPSERBAT":"SI","ANNOREAL":1990,"TIPFUNZION":"CO","TELECONTR":"N","STATOSERV":"S"}},
{"type":"Feature","geometry":{"type":"Point","coordinates":[9.896981,44.6445690009432,0]},"properties":{"CODICESER":"NG2VAR1003001","DENOMSERB":"Villa Sgui","CODACQUED":"NG2VAR1003","ZSERBATOIO":738,"VOLUMUTILE":6,"QUOTMINESE":-999,"QUOTMAXESE":-999,"FUNZIOSER":"CO","TIPSERBAT":"SI","ANNOREAL":1958,"TIPFUNZION":"CO","TELECONTR":"N","STATOSERV":"S"}},
{"type":"Feature","geometry":{"type":"Point","coordinates":[9.81449102769695,44.6119292480666,0]},"properties":{"CODICESER":"NG2VAR1028002","DENOMSERB":"Piani del Oppio","CODACQUED":"NG2VAR1028","ZSERBATOIO":-999,"VOLUMUTILE":24,"QUOTMINESE":-999,"QUOTMAXESE":-999,"FUNZIOSER":"CO","TIPSERBAT":"SI","ANNOREAL":1960,"TIPFUNZION":"CO","CODIMPSOL":"NG2VAR1033001","TELECONTR":"N","STATOSERV":"S"}},
{"type":"Feature","geometry":{"type":"Point","coordinates":[9.8669189793766,44.6295474895667,0]},"properties":{"CODICESER":"NG2VAR1028003","DENOMSERB":"Pessola","CODACQUED":"NG2VAR1028","ZSERBATOIO":820,"VOLUMUTILE":30,"QUOTMINESE":-999,"QUOTMAXESE":-999,"FUNZIOSER":"CO","TIPSERBAT":"SI","ANNOREAL":1983,"TIPFUNZION":"CO","TELECONTR":"N","STATOSERV":"S"}},
{"type":"Feature","geometry":{"type":"Point","coordinates":[9.816414575236,44.6171741390633,0]},"properties":{"CODICESER":"NG2VAR1033002","DENOMSERB":"Campo del Gallo","CODACQUED":"NG2VAR1033","ZSERBATOIO":680,"VOLUMUTILE":90,"QUOTMINESE":-999,"QUOTMAXESE":-999,"FUNZIOSER":"CO","TIPSERBAT":"SI","ANNOREAL":-999,"TIPFUNZION":"CO","TELECONTR":"N","STATOSERV":"S"}},
{"type":"Feature","geometry":{"type":"Point","coordinates":[9.822729,44.6149270009432,0]},"properties":{"CODICESER":"NG2VAR1033001","DENOMSERB":"Peretti","CODACQUED":"NG2VAR1033","ZSERBATOIO":710,"VOLUMUTILE":2,"QUOTMINESE":-999,"QUOTMAXESE":-999,"FUNZIOSER":"CO","TIPSERBAT":"SI","ANNOREAL":1950,"TIPFUNZION":"CO","TELECONTR":"N","STATOSERV":"S"}},
{"type":"Feature","geometry":{"type":"Point","coordinates":[9.82016266959719,44.616696504778,0]},"properties":{"CODICESER":"NG2VAR1028006","DENOMSERB":"Tosca","CODACQUED":"NG2VAR1028","ZSERBATOIO":668,"VOLUMUTILE":24,"QUOTMINESE":-999,"QUOTMAXESE":-999,"FUNZIOSER":"CO","TIPSERBAT":"SI","ANNOREAL":1950,"TIPFUNZION":"CO","TELECONTR":"N","STATOSERV":"S"}},
{"type":"Feature","geometry":{"type":"Point","coordinates":[9.83446668225948,44.6453494818929,0]},"properties":{"CODICESER":"NG2VAR1021002","DENOMSERB":"Rocca Vecchia","CODACQUED":"NG2VAR1021","ZSERBATOIO":670,"VOLUMUTILE":15,"QUOTMINESE":-999,"QUOTMAXESE":-999,"FUNZIOSER":"CO","TIPSERBAT":"SI","ANNOREAL":1950,"TIPFUNZION":"CO","TELECONTR":"N","STATOSERV":"S"}},
{"type":"Feature","geometry":{"type":"Point","coordinates":[9.80754200933469,44.6103679701035,0]},"properties":{"CODICESER":"NG2VAR1028007","DENOMSERB":"Città d'Umbria","CODACQUED":"NG2VAR1028","ZSERBATOIO":948,"VOLUMUTILE":30,"QUOTMINESE":-999,"QUOTMAXESE":-999,"FUNZIOSER":"CO","TIPSERBAT":"SI","ANNOREAL":1960,"TIPFUNZION":"CO","TELECONTR":"N","STATOSERV":"S"}},
{"type":"Feature","geometry":{"type":"Point","coordinates":[9.81298810970764,44.6110181206531,0]},"properties":{"CODICESER":"NG2VAR1028008","DENOMSERB":"Sternara","CODACQUED":"NG2VAR1028","ZSERBATOIO":-999,"VOLUMUTILE":10,"QUOTMINESE":-999,"QUOTMAXESE":-999,"FUNZIOSER":"CO","TIPSERBAT":"SI","ANNOREAL":1960,"TIPFUNZION":"CO","TELECONTR":"N","STATOSERV":"S"}},
{"type":"Feature","geometry":{"type":"Point","coordinates":[9.80648721907972,44.6132093341969,0]},"properties":{"CODICESER":"NG2VAR1028009","DENOMSERB":"Pian di Luchino","CODACQUED":"NG2VAR1028","ZSERBATOIO":-999,"VOLUMUTILE":6,"QUOTMINESE":-999,"QUOTMAXESE":-999,"FUNZIOSER":"CO","TIPSERBAT":"IN","ANNOREAL":1960,"TIPFUNZION":"CO","TELECONTR":"N","STATOSERV":"S"}},
{"type":"Feature","geometry":{"type":"Point","coordinates":[9.88230057270761,44.6617464552649,0]},"properties":{"CODICESER":"NG2VAR1001001","DENOMSERB":"Montebello raccoglitore prese","CODACQUED":"NG2VAR1001","ZSERBATOIO":595,"VOLUMUTILE":1.5,"QUOTMINESE":-999,"QUOTMAXESE":-999,"FUNZIOSER":"CO","TIPSERBAT":"SI","ANNOREAL":1980,"TIPFUNZION":"CO","TELECONTR":"N","STATOSERV":"S"}},
{"type":"Feature","geometry":{"type":"Point","coordinates":[9.88112494334337,44.6614697036426,0]},"properties":{"CODICESER":"NG2VAR1001002","DENOMSERB":"Montebello 3","CODACQUED":"NG2VAR1001","ZSERBATOIO":575,"VOLUMUTILE":1,"QUOTMINESE":-999,"QUOTMAXESE":-999,"FUNZIOSER":"CO","TIPSERBAT":"SI","ANNOREAL":1980,"TIPFUNZION":"CO","TELECONTR":"N","STATOSERV":"S"}},
{"type":"Feature","geometry":{"type":"Point","coordinates":[9.87561354799814,44.6607532992668,0]},"properties":{"CODICESER":"NG2VAR1025001","DENOMSERB":"Golaso","CODACQUED":"NG2VAR1025","ZSERBATOIO":562,"VOLUMUTILE":1,"QUOTMINESE":-999,"QUOTMAXESE":-999,"FUNZIOSER":"CO","TIPSERBAT":"SI","ANNOREAL":1980,"TIPFUNZION":"CO","TELECONTR":"N","STATOSERV":"S"}},
{"type":"Feature","geometry":{"type":"Point","coordinates":[9.88520375501485,44.671841825421,0]},"properties":{"CODICESER":"NG2VAR1001003","DENOMSERB":"Montebello","CODACQUED":"NG2VAR1001","ZSERBATOIO":511,"VOLUMUTILE":47,"QUOTMINESE":-999,"QUOTMAXESE":-999,"FUNZIOSER":"CO","TIPSERBAT":"SI","ANNOREAL":1970,"TIPFUNZION":"CO","TELECONTR":"N","STATOSERV":"S"}},
{"type":"Feature","geometry":{"type":"Point","coordinates":[9.8910611866147,44.6756194548707,0]},"properties":{"CODICESER":"NG2VAR1001004","DENOMSERB":"Manini","CODACQUED":"NG2VAR1001","ZSERBATOIO":460,"VOLUMUTILE":15,"QUOTMINESE":-999,"QUOTMAXESE":-999,"FUNZIOSER":"CO","TIPSERBAT":"SI","ANNOREAL":-999,"TIPFUNZION":"CO","TELECONTR":"N","STATOSERV":"S"}},
{"type":"Feature","geometry":{"type":"Point","coordinates":[9.83571206946885,44.6389331698272,0]},"properties":{"CODICESER":"NG2VAR1011001","DENOMSERB":"Rocca Ferrara","CODACQUED":"NG2VAR1011","ZSERBATOIO":685,"VOLUMUTILE":11,"QUOTMINESE":-999,"QUOTMAXESE":-999,"FUNZIOSER":"CO","TIPSERBAT":"SI","ANNOREAL":-999,"TIPFUNZION":"CO","TELECONTR":"N","STATOSERV":"S"}},
{"type":"Feature","geometry":{"type":"Point","coordinates":[9.840144,44.6390610009432,0]},"properties":{"CODICESER":"NG2VAR1011002","DENOMSERB":"Ca Dionisio","CODACQUED":"NG2VAR1011","ZSERBATOIO":708,"VOLUMUTILE":8,"QUOTMINESE":-999,"QUOTMAXESE":-999,"FUNZIOSER":"CO","TIPSERBAT":"SI","ANNOREAL":-999,"TIPFUNZION":"CO","TELECONTR":"N","STATOSERV":"S"}},